[
  {
    "office_name": "San Antonio Central",
    "longitude": "NULL",
    "zipcode": "78227",
    "latitude": "NULL",
    "streetname": "Galaxy Dr",
    "streetnum": "154",
    "city": "San Antonio"
  },
  {
    "office_name": "Dallas",
    "longitude": "-96.945892000000",
    "zipcode": "75249",
    "latitude": "32.624969000000",
    "streetname": "Nutmeg",
    "streetnum": "7155",
    "city": "Dallas"
  },
  {
    "office_name": "Houston Central",
    "longitude": "-95.565696716309",
    "zipcode": "77318",
    "latitude": "30.469800949097",
    "streetname": "Sunfish Road",
    "streetnum": "15639",
    "city": "Willis"
  },
  {
    "office_name": "Denton",
    "longitude": "-97.227600000000",
    "zipcode": "76262",
    "latitude": "32.996231000000",
    "streetname": "Walnut",
    "streetnum": "208",
    "city": "Roanoke"
  },
  {
    "office_name": "Fort Worth",
    "longitude": "-97.371475219700",
    "zipcode": "76109",
    "latitude": "32.697677612300",
    "streetname": "Shelby",
    "streetnum": "3632",
    "city": "Fort Worth"
  },
  {
    "office_name": "Fort Worth",
    "longitude": "-97.378097534200",
    "zipcode": "76107",
    "latitude": "32.770828247100",
    "streetname": "Edgefield",
    "streetnum": "801",
    "city": "Fort Worth"
  },
  {
    "office_name": "Dallas",
    "longitude": "-97.097709655800",
    "zipcode": "76210",
    "latitude": "33.156269073500",
    "streetname": "Andalusian",
    "streetnum": "3415",
    "city": "Denton"
  },
  {
    "office_name": "Fort Worth",
    "longitude": "-96.651657104500",
    "zipcode": "75217",
    "latitude": "32.747268676800",
    "streetname": "Cedar Mountain",
    "streetnum": "9911",
    "city": "Dallas"
  },
  {
    "office_name": "San Antonio Central",
    "longitude": "-98.454307556152",
    "zipcode": "78210",
    "latitude": "29.397705078125",
    "streetname": "KAYTON AVE",
    "streetnum": "1001",
    "city": "San Antonio"
  },
  {
    "office_name": "San Antonio Central",
    "longitude": "-98.605431000000",
    "zipcode": "78240",
    "latitude": "29.504587000000",
    "streetname": "DASHWOOD",
    "streetnum": "7719",
    "city": "San Antonio"
  },
  {
    "office_name": "Dallas",
    "longitude": "-96.960922241200",
    "zipcode": "75060",
    "latitude": "32.810478210400",
    "streetname": "4th",
    "streetnum": "1212",
    "city": "Irving"
  },
  {
    "office_name": "San Antonio Central",
    "longitude": "-98.501167297363",
    "zipcode": "78212",
    "latitude": "29.465063095093",
    "streetname": "ROSEWOOD AVE",
    "streetnum": "503",
    "city": "San Antonio"
  },
  {
    "office_name": "Dallas",
    "longitude": "-96.652984619100",
    "zipcode": "75217",
    "latitude": "32.740989685100",
    "streetname": "Red Cloud",
    "streetnum": "1632",
    "city": "Dallas"
  },
  {
    "office_name": "San Antonio Central",
    "longitude": "-98.472740000000",
    "zipcode": "78202",
    "latitude": "29.431749000000",
    "streetname": "Lamar",
    "streetnum": "511",
    "city": "San Antonio"
  },
  {
    "office_name": "San Antonio Central",
    "longitude": "-98.493621826172",
    "zipcode": "78221",
    "latitude": "29.335157394409",
    "streetname": "EMMETT AVE",
    "streetnum": "523",
    "city": "San Antonio"
  },
  {
    "office_name": "Fort Worth",
    "longitude": "-97.788732647900",
    "zipcode": "76086",
    "latitude": "32.763197198500",
    "streetname": "Mill",
    "streetnum": "408",
    "city": "Weatherford"
  },
  {
    "office_name": "San Antonio Central",
    "longitude": "-98.447349548340",
    "zipcode": "78209",
    "latitude": "29.501754760742",
    "streetname": "Larkwood",
    "streetnum": "614",
    "city": "San Antonio"
  },
  {
    "office_name": "San Antonio Central",
    "longitude": "-98.503227233887",
    "zipcode": "78212",
    "latitude": "29.453563690186",
    "streetname": "Mistletoe Ave",
    "streetnum": "610",
    "city": "San Antonio"
  },
  {
    "office_name": "Fort Worth",
    "longitude": "-96.685890197800",
    "zipcode": "75074",
    "latitude": "33.024711608900",
    "streetname": "Redbud",
    "streetnum": "2110",
    "city": "PLANO"
  },
  {
    "office_name": "Dallas",
    "longitude": "-96.836387634300",
    "zipcode": "75244",
    "latitude": "32.917945861800",
    "streetname": "Rickover",
    "streetnum": "4244",
    "city": "Dallas"
  },
  {
    "office_name": "Fort Worth",
    "longitude": "-96.951744079600",
    "zipcode": "76258",
    "latitude": "33.395111084000",
    "streetname": "Liberty",
    "streetnum": "567",
    "city": "Pilot Point"
  },
  {
    "office_name": "Denton",
    "longitude": "-96.881271362300",
    "zipcode": "75056",
    "latitude": "33.098541259800",
    "streetname": "Pruitt",
    "streetnum": "5109",
    "city": "The Colony"
  },
  {
    "office_name": "Dallas",
    "longitude": "-96.680404663100",
    "zipcode": "75228",
    "latitude": "32.824901580800",
    "streetname": "Healey",
    "streetnum": "2106",
    "city": "Dallas"
  },
  {
    "office_name": "Fort Worth",
    "longitude": "-97.378479003900",
    "zipcode": "76107",
    "latitude": "32.749969482400",
    "streetname": "Mattison",
    "streetnum": "4056",
    "city": "Fort Worth"
  },
  {
    "office_name": "Dallas",
    "longitude": "-96.858749389600",
    "zipcode": "75229",
    "latitude": "32.888092041000",
    "streetname": "Merrell",
    "streetnum": "3605",
    "city": "Dallas"
  },
  {
    "office_name": "Atlanta",
    "longitude": "-84.261722000000",
    "zipcode": "30032",
    "latitude": "33.730839900000",
    "streetname": "Rosewood",
    "streetnum": "2032",
    "city": "Decatur"
  },
  {
    "office_name": "Atlanta",
    "longitude": "-84.236116000000",
    "zipcode": "30032",
    "latitude": "33.752373900000",
    "streetname": "Austin",
    "streetnum": "1376",
    "city": "Decatur"
  },
  {
    "office_name": "Atlanta",
    "longitude": "-84.258712768555",
    "zipcode": "30033",
    "latitude": "33.821331024170",
    "streetname": "GABLEWOOD",
    "streetnum": "3188",
    "city": "Decatur"
  },
  {
    "office_name": "Atlanta",
    "longitude": "-84.305669000000",
    "zipcode": "30032",
    "latitude": "33.732638900000",
    "streetname": "Delphine",
    "streetnum": "2007",
    "city": "Decatur"
  },
  {
    "office_name": "Fort Worth",
    "longitude": "-97.380615234375",
    "zipcode": "76133",
    "latitude": "32.649257659912",
    "streetname": "El Toro",
    "streetnum": "6450",
    "city": "Fort Worth"
  },
  {
    "office_name": "San Antonio Central",
    "longitude": "-98.540184020996",
    "zipcode": "78228",
    "latitude": "29.454532623291",
    "streetname": "Craig Pl",
    "streetnum": "2619",
    "city": "San Antonio"
  },
  {
    "office_name": "Houston Central",
    "longitude": "-95.470070000000",
    "zipcode": "77035",
    "latitude": "29.659883000000",
    "streetname": "Kinglet",
    "streetnum": "5115",
    "city": "Houston"
  },
  {
    "office_name": "San Antonio Central",
    "longitude": "-98.446678161621",
    "zipcode": "78259",
    "latitude": "29.631807327271",
    "streetname": "OAK PEAK",
    "streetnum": "2131",
    "city": "San Antonio"
  },
  {
    "office_name": "San Antonio Central",
    "longitude": "-98.571877000000",
    "zipcode": "78228",
    "latitude": "29.475540000000",
    "streetname": "ROLLING GREEN DR",
    "streetnum": "135",
    "city": "San Antonio"
  },
  {
    "office_name": "Fort Worth",
    "longitude": "-97.381813049316",
    "zipcode": "76109",
    "latitude": "32.677104949951",
    "streetname": "Whitfield",
    "streetnum": "4116",
    "city": "Fort Worth"
  },
  {
    "office_name": "Fort Worth",
    "longitude": "-97.381058000000",
    "zipcode": "76107",
    "latitude": "32.731197000000",
    "streetname": "Lovell",
    "streetnum": "4210",
    "city": "Fort Worth"
  },
  {
    "office_name": "Atlanta",
    "longitude": "-84.260864257812",
    "zipcode": "30345",
    "latitude": "33.863834381104",
    "streetname": "Rangewood",
    "streetnum": "2645",
    "city": "Atlanta"
  },
  {
    "office_name": "Fort Worth",
    "longitude": "-97.342522000000",
    "zipcode": "76110",
    "latitude": "32.708748000000",
    "streetname": "Ryan",
    "streetnum": "2921",
    "city": "Fort Worth"
  },
  {
    "office_name": "Houston Central",
    "longitude": "-95.536163330078",
    "zipcode": "77459",
    "latitude": "29.569917678833",
    "streetname": "Fountain Valley",
    "streetnum": "2126",
    "city": "Missouri City"
  },
  {
    "office_name": "Atlanta",
    "longitude": "-84.299659729004",
    "zipcode": "30032",
    "latitude": "33.738040924072",
    "streetname": "Daniel",
    "streetnum": "531",
    "city": "Decatur"
  },
  {
    "office_name": "Dallas",
    "longitude": "-96.858810000000",
    "zipcode": "75229",
    "latitude": "32.885014000000",
    "streetname": "Timber Trail",
    "streetnum": "10218",
    "city": "Dallas"
  },
  {
    "office_name": "San Antonio Central",
    "longitude": "-98.656677246094",
    "zipcode": "78250",
    "latitude": "29.488285064697",
    "streetname": "TIMBERWILDE ST",
    "streetnum": "8727",
    "city": "San Antonio"
  },
  {
    "office_name": "Fort Worth",
    "longitude": "-97.390709000000",
    "zipcode": "76114",
    "latitude": "32.795815000000",
    "streetname": "Macie",
    "streetnum": "4800",
    "city": "Fort Worth"
  },
  {
    "office_name": "Denton",
    "longitude": "-96.892944000000",
    "zipcode": "75006",
    "latitude": "32.982285000000",
    "streetname": "Canterbury",
    "streetnum": "2500",
    "city": "Carrollton"
  },
  {
    "office_name": "Dallas",
    "longitude": "-96.868126000000",
    "zipcode": "75229",
    "latitude": "32.898136000000",
    "streetname": "Dothan",
    "streetnum": "3257",
    "city": "Dallas"
  },
  {
    "office_name": "Orange",
    "longitude": "-118.119736000000",
    "zipcode": "91801",
    "latitude": "34.105747000000",
    "streetname": "El Molino",
    "streetnum": "529",
    "city": "Alhambra"
  },
  {
    "office_name": "San Antonio Central",
    "longitude": "-98.417183000000",
    "zipcode": "78218",
    "latitude": "29.512920000000",
    "streetname": "STARHILL DR",
    "streetnum": "3939",
    "city": "San Antonio"
  },
  {
    "office_name": "Houston Central",
    "longitude": "-95.369628000000",
    "zipcode": "77004",
    "latitude": "29.717479000000",
    "streetname": "Southmore",
    "streetnum": "3102",
    "city": "Houston"
  },
  {
    "office_name": "Houston Central",
    "longitude": "-95.184036000000",
    "zipcode": "77502",
    "latitude": "29.687915000000",
    "streetname": "Effie",
    "streetnum": "1602",
    "city": "Pasadena"
  },
  {
    "office_name": "San Antonio Central",
    "longitude": "-98.466552734375",
    "zipcode": "78202",
    "latitude": "29.426603317261",
    "streetname": "Dawson",
    "streetnum": "1033",
    "city": "San Antonio"
  },
  {
    "office_name": "San Antonio Central",
    "longitude": "-98.565918000000",
    "zipcode": "78229",
    "latitude": "29.490225000000",
    "streetname": "CRESTRIDGE DR",
    "streetnum": "3906",
    "city": "San Antonio"
  },
  {
    "office_name": "San Antonio Central",
    "longitude": "-98.456139000000",
    "zipcode": "78210",
    "latitude": "29.408689000000",
    "streetname": "VINE ST",
    "streetnum": "210",
    "city": "San Antonio"
  },
  {
    "office_name": "Fort Worth",
    "longitude": "-97.234482000000",
    "zipcode": "76182",
    "latitude": "32.879478000000",
    "streetname": "Fair Meadows",
    "streetnum": "6753",
    "city": "North Richland Hills"
  },
  {
    "office_name": "Orange",
    "longitude": "-118.105759000000",
    "zipcode": "91107",
    "latitude": "34.154686000000",
    "streetname": "Villa",
    "streetnum": "2165",
    "city": "Pasadena"
  },
  {
    "office_name": "Atlanta",
    "longitude": "-84.261520000000",
    "zipcode": "30002",
    "latitude": "33.770771000000",
    "streetname": "Stratford",
    "streetnum": "812",
    "city": "Avondale Estates"
  },
  {
    "office_name": "Houston Central",
    "longitude": "-95.469734000000",
    "zipcode": "77380",
    "latitude": "30.147005000000",
    "streetname": "Yellowood Ct",
    "streetnum": "3",
    "city": "The Woodlands"
  },
  {
    "office_name": "Fort Worth",
    "longitude": "-97.175689697266",
    "zipcode": "76053",
    "latitude": "32.813770294189",
    "streetname": "Hurstview",
    "streetnum": "313",
    "city": "Hurst"
  },
  {
    "office_name": "Dallas",
    "longitude": "-96.879944000000",
    "zipcode": "75007",
    "latitude": "33.003460000000",
    "streetname": "Barton",
    "streetnum": "3113",
    "city": "Carrollton"
  },
  {
    "office_name": "Houston Central",
    "longitude": "-95.064377000000",
    "zipcode": "77586",
    "latitude": "29.568871000000",
    "streetname": "Shirleen Dr",
    "streetnum": "307",
    "city": "Pasadena"
  },
  {
    "office_name": "San Antonio Central",
    "longitude": "-98.499637395144",
    "zipcode": "78212",
    "latitude": "29.463974833488",
    "streetname": "Hollywood Ave",
    "streetnum": "412",
    "city": "San Antonio"
  },
  {
    "office_name": "Fort Worth",
    "longitude": "-97.392677000000",
    "zipcode": "76107",
    "latitude": "32.734158000000",
    "streetname": "Calmont",
    "streetnum": "4828",
    "city": "Fort Worth"
  },
  {
    "office_name": "Atlanta",
    "longitude": "-84.260276794434",
    "zipcode": "30345",
    "latitude": "33.859630584717",
    "streetname": "King Arthur",
    "streetnum": "3136",
    "city": "Atlanta"
  },
  {
    "office_name": "Fort Worth",
    "longitude": "-97.315994000000",
    "zipcode": "76111",
    "latitude": "32.788307000000",
    "streetname": "Bluebird",
    "streetnum": "2020",
    "city": "Fort Worth"
  },
  {
    "office_name": "Dallas",
    "longitude": "-96.779137000000",
    "zipcode": "75248",
    "latitude": "32.952518000000",
    "streetname": "Tophill",
    "streetnum": "7443",
    "city": "Dallas"
  },
  {
    "office_name": "Atlanta",
    "longitude": "-84.289001464844",
    "zipcode": "30033",
    "latitude": "33.811176300049",
    "streetname": "Willivee",
    "streetnum": "1281",
    "city": "Decatur"
  },
  {
    "office_name": "Orange",
    "longitude": "-118.439178000000",
    "zipcode": "91401",
    "latitude": "34.185955000000",
    "streetname": "MURIETTA",
    "streetnum": "6341",
    "city": "Valley Glen"
  },
  {
    "office_name": "Houston Central",
    "longitude": "-95.544441000000",
    "zipcode": "77036",
    "latitude": "29.694319000000",
    "streetname": "Hendon",
    "streetnum": "9039",
    "city": "Houston"
  },
  {
    "office_name": "Houston Central",
    "longitude": "-95.537345886230",
    "zipcode": "77069",
    "latitude": "29.976919174194",
    "streetname": "Belinda Court",
    "streetnum": "13619",
    "city": "Houston"
  },
  {
    "office_name": "Atlanta",
    "longitude": "-84.371536000000",
    "zipcode": "30342",
    "latitude": "33.871490000000",
    "streetname": "Chateaugay",
    "streetnum": "495",
    "city": "Atlanta"
  },
  {
    "office_name": "Orange",
    "longitude": "-117.806617736820",
    "zipcode": "92705",
    "latitude": "33.770603179932",
    "streetname": "Vale",
    "streetnum": "18682",
    "city": "Santa Ana"
  },
  {
    "office_name": "Orange",
    "longitude": "-118.158119000000",
    "zipcode": "91103",
    "latitude": "34.175720000000",
    "streetname": "Newport",
    "streetnum": "1744",
    "city": "Pasadena"
  },
  {
    "office_name": "Fort Worth",
    "longitude": "-97.391945000000",
    "zipcode": "76033",
    "latitude": "32.344032000000",
    "streetname": "FEATHERSTON",
    "streetnum": "308",
    "city": "Cleburne"
  },
  {
    "office_name": "Orange",
    "longitude": "-118.032351000000",
    "zipcode": "91024",
    "latitude": "34.168773000000",
    "streetname": "Santa Anita",
    "streetnum": "2161",
    "city": "Sierra Madre"
  },
  {
    "office_name": "Atlanta",
    "longitude": "-84.445373535156",
    "zipcode": "30310",
    "latitude": "33.738948822021",
    "streetname": "Westwood",
    "streetnum": "1761",
    "city": "Atlanta"
  },
  {
    "office_name": "Orange",
    "longitude": "-118.274009704590",
    "zipcode": "90027",
    "latitude": "34.107746124268",
    "streetname": "GRIFFITH PARK",
    "streetnum": "2815",
    "city": "Los Angeles"
  },
  {
    "office_name": "Fort Worth",
    "longitude": "-97.275352000000",
    "zipcode": "76117",
    "latitude": "32.816746000000",
    "streetname": "Vicki",
    "streetnum": "4929",
    "city": "Haltom City"
  },
  {
    "office_name": "Fort Worth",
    "longitude": "-97.141205000000",
    "zipcode": "76017",
    "latitude": "32.672768000000",
    "streetname": "Riverforest",
    "streetnum": "2007",
    "city": "Arlington"
  },
  {
    "office_name": "Atlanta",
    "longitude": "-84.251869201660",
    "zipcode": "30341",
    "latitude": "33.876583099365",
    "streetname": "Medinah",
    "streetnum": "3016",
    "city": "Chamblee"
  },
  {
    "office_name": "Philadelphia",
    "longitude": "-75.157024800000",
    "zipcode": "19147",
    "latitude": "39.930252800000",
    "streetname": "DICKINSON",
    "streetnum": "702",
    "city": "PHILADELPHIA"
  },
  {
    "office_name": "Orange",
    "longitude": "-118.016075000000",
    "zipcode": "90605",
    "latitude": "33.960850000000",
    "streetname": "Tedemory",
    "streetnum": "14429",
    "city": "Whittier"
  },
  {
    "office_name": "Dallas",
    "longitude": "-96.911392000000",
    "zipcode": "75137",
    "latitude": "32.635204000000",
    "streetname": "Cardinal Creek",
    "streetnum": "1427",
    "city": "Duncanville"
  },
  {
    "office_name": "Atlanta",
    "longitude": "-84.298355102539",
    "zipcode": "30033",
    "latitude": "33.813518524170",
    "streetname": "Hill Park",
    "streetnum": "2223",
    "city": "Decatur"
  },
  {
    "office_name": "Atlanta",
    "longitude": "-84.563194000000",
    "zipcode": "30082",
    "latitude": "33.860645000000",
    "streetname": "Herren",
    "streetnum": "3829",
    "city": "Smyrna"
  },
  {
    "office_name": "Atlanta",
    "longitude": "-84.300094604492",
    "zipcode": "30236",
    "latitude": "33.549209594727",
    "streetname": "Old South",
    "streetnum": "7505",
    "city": "Jonesboro"
  },
  {
    "office_name": "Houston Central",
    "longitude": "-95.578062000000",
    "zipcode": "77077",
    "latitude": "29.738389000000",
    "streetname": "WICKERSHAM LN",
    "streetnum": "11415",
    "city": "HOUSTON"
  },
  {
    "office_name": "Orange",
    "longitude": "-117.573349000000",
    "zipcode": "92679",
    "latitude": "33.611492000000",
    "streetname": "Eastridge",
    "streetnum": "3",
    "city": "Coto de Caza"
  },
  {
    "office_name": "Atlanta",
    "longitude": "-84.226531982422",
    "zipcode": "30034",
    "latitude": "33.695289611816",
    "streetname": "Crabapple",
    "streetnum": "3059",
    "city": "Decatur"
  },
  {
    "office_name": "Houston Central",
    "longitude": "-95.674774000000",
    "zipcode": "77083",
    "latitude": "29.698954000000",
    "streetname": "Espinosa",
    "streetnum": "16330",
    "city": "HOUSTON"
  },
  {
    "office_name": "Atlanta",
    "longitude": "-84.320236000000",
    "zipcode": "30316",
    "latitude": "33.714417000000",
    "streetname": "BRANNEN",
    "streetnum": "2093",
    "city": "Atlanta"
  },
  {
    "office_name": "San Antonio Central",
    "longitude": "-98.426010000000",
    "zipcode": "78247",
    "latitude": "29.574848000000",
    "streetname": "JENKINS DR",
    "streetnum": "3219",
    "city": "San Antonio"
  },
  {
    "office_name": "Fort Worth",
    "longitude": "-97.541466000000",
    "zipcode": "76020",
    "latitude": "32.898693000000",
    "streetname": "Inwood",
    "streetnum": "408",
    "city": "Azle"
  },
  {
    "office_name": "Fort Worth",
    "longitude": "-97.397781000000",
    "zipcode": "76033",
    "latitude": "32.341385000000",
    "streetname": "Featherston",
    "streetnum": "802",
    "city": "Cleburne"
  },
  {
    "office_name": "Fort Worth",
    "longitude": "-97.284882000000",
    "zipcode": "76117",
    "latitude": "32.815754000000",
    "streetname": "Eastridge",
    "streetnum": "3612",
    "city": "Haltom City"
  },
  {
    "office_name": "Atlanta",
    "longitude": "-84.262062072754",
    "zipcode": "30033",
    "latitude": "33.818630218506",
    "streetname": "Flamingo",
    "streetnum": "3143",
    "city": "Decatur"
  },
  {
    "office_name": "Atlanta",
    "longitude": "-84.426315307617",
    "zipcode": "30310",
    "latitude": "33.741111755371",
    "streetname": "Oak Street",
    "streetnum": "1177",
    "city": "Atlanta"
  },
  {
    "office_name": "Orange",
    "longitude": "-117.860359000000",
    "zipcode": "91724",
    "latitude": "34.060371000000",
    "streetname": "Buenos Aires",
    "streetnum": "2349",
    "city": "Covina"
  },
  {
    "office_name": "San Antonio Central",
    "longitude": "-98.413200378418",
    "zipcode": "78218",
    "latitude": "29.492595672607",
    "streetname": "TROPICAL DR",
    "streetnum": "4107",
    "city": "San Antonio"
  },
  {
    "office_name": "San Antonio Central",
    "longitude": "-98.452759000000",
    "zipcode": "78209",
    "latitude": "29.497286000000",
    "streetname": "RIDGEHAVEN PL",
    "streetnum": "327",
    "city": "San Antonio"
  },
  {
    "office_name": "San Antonio Central",
    "longitude": "-98.670967000000",
    "zipcode": "78254",
    "latitude": "29.528824000000",
    "streetname": "Autumn Shade",
    "streetnum": "9542",
    "city": "San Antonio"
  },
  {
    "office_name": "Philadelphia",
    "longitude": "-75.158040001988",
    "zipcode": "19147",
    "latitude": "39.930965602398",
    "streetname": "S 8th",
    "streetnum": "1430",
    "city": "Philadelphia"
  },
  {
    "office_name": "Philadelphia",
    "longitude": "0.000000000000",
    "zipcode": "19148",
    "latitude": "0.000000000000",
    "streetname": "MERCY",
    "streetnum": "415",
    "city": "PHILADELPHIA"
  },
  {
    "office_name": "Houston Central",
    "longitude": "-95.120338439941",
    "zipcode": "77536",
    "latitude": "29.672590255737",
    "streetname": "Grant",
    "streetnum": "305",
    "city": "Deer Park"
  },
  {
    "office_name": "Houston Central",
    "longitude": "-95.492523000000",
    "zipcode": "77096",
    "latitude": "29.658812000000",
    "streetname": "HILLCROFT ST",
    "streetnum": "11102",
    "city": "HOUSTON"
  },
  {
    "office_name": "Fort Worth",
    "longitude": "-96.869652000000",
    "zipcode": "75056",
    "latitude": "33.097168000000",
    "streetname": "Ramsey",
    "streetnum": "5541",
    "city": "The Colony"
  },
  {
    "office_name": "Dallas",
    "longitude": "-96.620506286621",
    "zipcode": "75069",
    "latitude": "33.144584655762",
    "streetname": "Sloan",
    "streetnum": "1120",
    "city": "Fairview"
  },
  {
    "office_name": "Fort Worth",
    "longitude": "-97.220459000000",
    "zipcode": "76112",
    "latitude": "32.757816000000",
    "streetname": "Warrington",
    "streetnum": "6404",
    "city": "Fort Worth"
  },
  {
    "office_name": "Dallas",
    "longitude": "-96.692841000000",
    "zipcode": "75074",
    "latitude": "33.032917000000",
    "streetname": "Laurel",
    "streetnum": "1508",
    "city": "Plano"
  },
  {
    "office_name": "Dallas",
    "longitude": "-96.755974000000",
    "zipcode": "75214",
    "latitude": "32.841518000000",
    "streetname": "Saint Albans",
    "streetnum": "6253",
    "city": "Dallas"
  },
  {
    "office_name": "San Antonio Central",
    "longitude": "-98.548203000000",
    "zipcode": "78228",
    "latitude": "29.448586000000",
    "streetname": "WAVERLY AVE",
    "streetnum": "2215",
    "city": "San Antonio"
  },
  {
    "office_name": "Fort Worth",
    "longitude": "-97.099960000000",
    "zipcode": "76014",
    "latitude": "32.689281000000",
    "streetname": "Kilrush",
    "streetnum": "3437",
    "city": "Arlington"
  },
  {
    "office_name": "San Antonio Central",
    "longitude": "-98.666298000000",
    "zipcode": "78245",
    "latitude": "29.413479000000",
    "streetname": "Fort Henry Dr",
    "streetnum": "1814",
    "city": "San Antonio"
  },
  {
    "office_name": "Fort Worth",
    "longitude": "-97.230995000000",
    "zipcode": "76112",
    "latitude": "32.750607000000",
    "streetname": "Monterrey",
    "streetnum": "5740",
    "city": "Fort Worth"
  },
  {
    "office_name": "San Antonio Central",
    "longitude": "-98.381958000000",
    "zipcode": "78239",
    "latitude": "29.512346000000",
    "streetname": "FENWICK",
    "streetnum": "426",
    "city": "Windcrest"
  },
  {
    "office_name": "Orange",
    "longitude": "-118.192513000000",
    "zipcode": "90042",
    "latitude": "34.103714000000",
    "streetname": "Via Marisol",
    "streetnum": "5701",
    "city": "Los Angeles"
  },
  {
    "office_name": "Orange",
    "longitude": "-118.330933000000",
    "zipcode": "90019",
    "latitude": "34.058216000000",
    "streetname": "MUIRFIED",
    "streetnum": "925",
    "city": "Los Angeles"
  },
  {
    "office_name": "San Antonio Central",
    "longitude": "-98.555733000000",
    "zipcode": "78228",
    "latitude": "29.463892000000",
    "streetname": "Oriole Ln",
    "streetnum": "231",
    "city": "San Antonio"
  },
  {
    "office_name": "Fort Worth",
    "longitude": "-97.443474000000",
    "zipcode": "76135",
    "latitude": "32.801880000000",
    "streetname": "Pawnee",
    "streetnum": "7205",
    "city": "Lake Worth"
  },
  {
    "office_name": "Dallas",
    "longitude": "-96.723717000000",
    "zipcode": "75080",
    "latitude": "32.991604000000",
    "streetname": "Brook Glen",
    "streetnum": "419",
    "city": "Richardson"
  },
  {
    "office_name": "Fort Worth",
    "longitude": "-97.119995000000",
    "zipcode": "76015",
    "latitude": "32.686222000000",
    "streetname": "Headwater",
    "streetnum": "800",
    "city": "Arlington"
  },
  {
    "office_name": "Orange",
    "longitude": "-118.175194000000",
    "zipcode": "91105",
    "latitude": "34.152798000000",
    "streetname": "Mooresque",
    "streetnum": "414",
    "city": "Pasadena"
  },
  {
    "office_name": "Fort Worth",
    "longitude": "-97.099648000000",
    "zipcode": "76014",
    "latitude": "32.689438000000",
    "streetname": "Shea",
    "streetnum": "3408",
    "city": "Arlington"
  },
  {
    "office_name": "Atlanta",
    "longitude": "-83.996803283691",
    "zipcode": "30043",
    "latitude": "34.008029937744",
    "streetname": "waters ferry dr",
    "streetnum": "1940",
    "city": "Lawrenceville"
  },
  {
    "office_name": "San Antonio Central",
    "longitude": "-98.484882000000",
    "zipcode": "78210",
    "latitude": "29.399361000000",
    "streetname": "Grove",
    "streetnum": "315",
    "city": "San Antonio"
  },
  {
    "office_name": "Dallas",
    "longitude": "-96.802834000000",
    "zipcode": "75248",
    "latitude": "32.957832000000",
    "streetname": "Yellow Rock",
    "streetnum": "6030",
    "city": "Dallas"
  },
  {
    "office_name": "Orange",
    "longitude": "-117.206596000000",
    "zipcode": "92586",
    "latitude": "33.699977000000",
    "streetname": "Ridgemoor",
    "streetnum": "25978",
    "city": "Sun City"
  },
  {
    "office_name": "Fort Worth",
    "longitude": "-97.372688293457",
    "zipcode": "76103",
    "latitude": "32.675834655762",
    "streetname": "Overton",
    "streetnum": "4812",
    "city": "Fort Worth"
  },
  {
    "office_name": "Atlanta",
    "longitude": "-84.423508000000",
    "zipcode": "30344",
    "latitude": "33.683372000000",
    "streetname": "Blount",
    "streetnum": "2629",
    "city": "East Point"
  },
  {
    "office_name": "Fort Worth",
    "longitude": "-97.370255000000",
    "zipcode": "76107",
    "latitude": "32.754414000000",
    "streetname": "4th",
    "streetnum": "3576",
    "city": "Fort Worth"
  },
  {
    "office_name": "Fort Worth",
    "longitude": "-97.392746000000",
    "zipcode": "76033",
    "latitude": "32.341694000000",
    "streetname": "Smith",
    "streetnum": "504",
    "city": "Cleburne"
  },
  {
    "office_name": "Fort Worth",
    "longitude": "-97.474586000000",
    "zipcode": "76126",
    "latitude": "32.674068000000",
    "streetname": "Lochness",
    "streetnum": "317",
    "city": "Benbrook"
  },
  {
    "office_name": "San Antonio Central",
    "longitude": "-98.503227000000",
    "zipcode": "78212",
    "latitude": "29.458393000000",
    "streetname": "SUMMIT AVE",
    "streetnum": "610",
    "city": "San Antonio"
  },
  {
    "office_name": "Dallas",
    "longitude": "-96.705841064453",
    "zipcode": "75227",
    "latitude": "32.788600921631",
    "streetname": "Ashbrook",
    "streetnum": "5217",
    "city": "Dallas"
  },
  {
    "office_name": "Dallas",
    "longitude": "-96.869698000000",
    "zipcode": "75115",
    "latitude": "32.584934000000",
    "streetname": "Priscilla",
    "streetnum": "633",
    "city": "DeSoto"
  },
  {
    "office_name": "Fort Worth",
    "longitude": "-97.381653000000",
    "zipcode": "76107",
    "latitude": "32.730251000000",
    "streetname": "Curzon",
    "streetnum": "4224",
    "city": "Fort Worth"
  },
  {
    "office_name": "Fort Worth",
    "longitude": "-97.251144000000",
    "zipcode": "76103",
    "latitude": "32.748005000000",
    "streetname": "Montclair",
    "streetnum": "2013",
    "city": "Fort Worth"
  },
  {
    "office_name": "San Antonio Central",
    "longitude": "-98.525101000000",
    "zipcode": "78201",
    "latitude": "29.453089000000",
    "streetname": "CRAIG PL",
    "streetnum": "1727",
    "city": "San Antonio"
  },
  {
    "office_name": "Orange",
    "longitude": "-118.306213000000",
    "zipcode": "90248",
    "latitude": "33.868000000000",
    "streetname": "La Salle",
    "streetnum": "17911",
    "city": "Gardena"
  },
  {
    "office_name": "Fort Worth",
    "longitude": "-97.423569000000",
    "zipcode": "76116",
    "latitude": "32.739697000000",
    "streetname": "Dakar",
    "streetnum": "1917",
    "city": "Fort Worth"
  },
  {
    "office_name": "Atlanta",
    "longitude": "-84.486717224121",
    "zipcode": "30066",
    "latitude": "34.072891235352",
    "streetname": "Ravenwood",
    "streetnum": "2263",
    "city": "Marietta"
  },
  {
    "office_name": "Houston Central",
    "longitude": "-95.155312000000",
    "zipcode": "77049",
    "latitude": "29.814308000000",
    "streetname": "Mountain Mist Trl",
    "streetnum": "15835",
    "city": "Houston"
  },
  {
    "office_name": "Orange",
    "longitude": "-117.451698000000",
    "zipcode": "92503",
    "latitude": "33.925320000000",
    "streetname": "Acacia",
    "streetnum": "4145",
    "city": "Riverside"
  },
  {
    "office_name": "Dallas",
    "longitude": "-96.759575000000",
    "zipcode": "75080",
    "latitude": "32.942383000000",
    "streetname": "Dearborn",
    "streetnum": "1219",
    "city": "Richardson"
  },
  {
    "office_name": "Atlanta",
    "longitude": "-84.429016113281",
    "zipcode": "30075",
    "latitude": "34.048908233643",
    "streetname": "Loch Highland",
    "streetnum": "4225",
    "city": "Roswell"
  },
  {
    "office_name": "San Antonio Central",
    "longitude": "-98.441315000000",
    "zipcode": "78223",
    "latitude": "29.374437000000",
    "streetname": "Dollarhide",
    "streetnum": "1111",
    "city": "San Antonio"
  },
  {
    "office_name": "Dallas",
    "longitude": "-96.879562377930",
    "zipcode": "75234",
    "latitude": "32.921253204346",
    "streetname": "Randy",
    "streetnum": "2939",
    "city": "Farmers Branch"
  },
  {
    "office_name": "Fort Worth",
    "longitude": "-96.867882000000",
    "zipcode": "75287",
    "latitude": "32.991604000000",
    "streetname": "Seedling",
    "streetnum": "2623",
    "city": "Dallas"
  },
  {
    "office_name": "Dallas",
    "longitude": "-96.891082763672",
    "zipcode": "75006",
    "latitude": "32.960079193115",
    "streetname": "Hood",
    "streetnum": "1837",
    "city": "Carrollton"
  },
  {
    "office_name": "Atlanta",
    "longitude": "-84.267494201660",
    "zipcode": "30032",
    "latitude": "33.746795654297",
    "streetname": "Pasadena",
    "streetnum": "2998",
    "city": "Decatur"
  },
  {
    "office_name": "San Antonio Central",
    "longitude": "-98.361008000000",
    "zipcode": "78244",
    "latitude": "29.471796000000",
    "streetname": "HIGHLAND FARM",
    "streetnum": "4803",
    "city": "San Antonio"
  },
  {
    "office_name": "Atlanta",
    "longitude": "-84.158333000000",
    "zipcode": "30058",
    "latitude": "33.733490000000",
    "streetname": "Saint Thomas",
    "streetnum": "5645",
    "city": "Lithonia"
  },
  {
    "office_name": "Fort Worth",
    "longitude": "-97.430404663086",
    "zipcode": "76116",
    "latitude": "32.741016387939",
    "streetname": "Granada",
    "streetnum": "1816",
    "city": "Fort Worth"
  },
  {
    "office_name": "Dallas",
    "longitude": "-96.869408000000",
    "zipcode": "75229",
    "latitude": "32.887173000000",
    "streetname": "Camelot",
    "streetnum": "3219",
    "city": "Dallas"
  },
  {
    "office_name": "Dallas",
    "longitude": "-96.763863000000",
    "zipcode": "75080",
    "latitude": "32.945992000000",
    "streetname": "Dublin",
    "streetnum": "608",
    "city": "Richardson"
  },
  {
    "office_name": "Orange",
    "longitude": "-118.374565000000",
    "zipcode": "91604",
    "latitude": "34.139137000000",
    "streetname": "SUNSHINE",
    "streetnum": "11268",
    "city": "Studio City"
  },
  {
    "office_name": "Fort Worth",
    "longitude": "-97.411377000000",
    "zipcode": "76107",
    "latitude": "32.735302000000",
    "streetname": "Littlepage",
    "streetnum": "2517",
    "city": "Fort Worth"
  },
  {
    "office_name": "Orange",
    "longitude": "-117.343055000000",
    "zipcode": "92530",
    "latitude": "33.636249000000",
    "streetname": "Tetterington",
    "streetnum": "33100",
    "city": "Lake Elsinore"
  },
  {
    "office_name": "Atlanta",
    "longitude": "-84.173950195312",
    "zipcode": "30088",
    "latitude": "33.729221343994",
    "streetname": "Scarborough",
    "streetnum": "2106",
    "city": "Stone Mountain"
  },
  {
    "office_name": "Houston Central",
    "longitude": "-95.571587000000",
    "zipcode": "77070",
    "latitude": "29.946314000000",
    "streetname": "Mill Trail",
    "streetnum": "11802",
    "city": "Houston"
  },
  {
    "office_name": "Philadelphia",
    "longitude": "0.000000000000",
    "zipcode": "19050",
    "latitude": "0.000000000000",
    "streetname": "MELROSE",
    "streetnum": "124",
    "city": "LANSDOWNE"
  },
  {
    "office_name": "Orange",
    "longitude": "-117.820625000000",
    "zipcode": "92603",
    "latitude": "33.640224000000",
    "streetname": "Bethany",
    "streetnum": "13",
    "city": "Irvine"
  },
  {
    "office_name": "Houston Central",
    "longitude": "-95.506446838379",
    "zipcode": "77080",
    "latitude": "29.823181152344",
    "streetname": "greiner rd",
    "streetnum": "8710",
    "city": "houston"
  },
  {
    "office_name": "Houston Central",
    "longitude": "-95.470764000000",
    "zipcode": "77092",
    "latitude": "29.825525000000",
    "streetname": "Poinciana",
    "streetnum": "5319",
    "city": "Houston"
  },
  {
    "office_name": "Fort Worth",
    "longitude": "-97.358609000000",
    "zipcode": "76133",
    "latitude": "32.671526000000",
    "streetname": "Covert",
    "streetnum": "2817",
    "city": "Fort Worth"
  },
  {
    "office_name": "Houston Central",
    "longitude": "-95.653580000000",
    "zipcode": "77083",
    "latitude": "29.695372000000",
    "streetname": "Gran Vista",
    "streetnum": "15122",
    "city": "Houston"
  },
  {
    "office_name": "Atlanta",
    "longitude": "-84.332237243652",
    "zipcode": "30316",
    "latitude": "33.716098785400",
    "streetname": "ROLLINGWOOD",
    "streetnum": "2728",
    "city": "Atlanta"
  },
  {
    "office_name": "Atlanta",
    "longitude": "-84.599250793457",
    "zipcode": "30168",
    "latitude": "33.799293518066",
    "streetname": "Jacqueline Cir",
    "streetnum": "1520",
    "city": "Austell"
  },
  {
    "office_name": "Fort Worth",
    "longitude": "-97.233131000000",
    "zipcode": "76180",
    "latitude": "32.829094000000",
    "streetname": "Briley",
    "streetnum": "6903",
    "city": "North Richland Hills"
  },
  {
    "office_name": "Philadelphia",
    "longitude": "-75.192199707031",
    "zipcode": "19129",
    "latitude": "40.012107849121",
    "streetname": "NEW QUEEN",
    "streetnum": "3547",
    "city": "PHILADELPHIA"
  },
  {
    "office_name": "Fort Worth",
    "longitude": "-97.380859375000",
    "zipcode": "76107",
    "latitude": "32.728759765625",
    "streetname": "Donnelly",
    "streetnum": "4205",
    "city": "Fort Worth"
  },
  {
    "office_name": "Dallas",
    "longitude": "-96.895424000000",
    "zipcode": "75116",
    "latitude": "32.667351000000",
    "streetname": "Caravan",
    "streetnum": "1135",
    "city": "Duncanville"
  },
  {
    "office_name": "Dallas",
    "longitude": "-96.701339000000",
    "zipcode": "75238",
    "latitude": "32.881782000000",
    "streetname": "Mapleridge",
    "streetnum": "10632",
    "city": "Dallas"
  },
  {
    "office_name": "Fort Worth",
    "longitude": "-97.364082000000",
    "zipcode": "76133",
    "latitude": "32.656937000000",
    "streetname": "Wayland",
    "streetnum": "3309",
    "city": "Fort Worth"
  },
  {
    "office_name": "Fort Worth",
    "longitude": "-97.284866000000",
    "zipcode": "76117",
    "latitude": "32.804279000000",
    "streetname": "Eastridge",
    "streetnum": "3400",
    "city": "Haltom City"
  },
  {
    "office_name": "Fort Worth",
    "longitude": "-97.344154000000",
    "zipcode": "76110",
    "latitude": "32.709167000000",
    "streetname": "8th",
    "streetnum": "2904",
    "city": "Fort Worth"
  },
  {
    "office_name": "Fort Worth",
    "longitude": "-96.615730000000",
    "zipcode": "75043",
    "latitude": "32.871780000000",
    "streetname": "Colonial",
    "streetnum": "634",
    "city": "Garland"
  },
  {
    "office_name": "Atlanta",
    "longitude": "-84.486831000000",
    "zipcode": "30337",
    "latitude": "33.636325900000",
    "streetname": "Yates",
    "streetnum": "4383",
    "city": "College Park"
  },
  {
    "office_name": "Dallas",
    "longitude": "-96.652473000000",
    "zipcode": "75002",
    "latitude": "33.108486000000",
    "streetname": "Lake Highlands",
    "streetnum": "708",
    "city": "Allen"
  },
  {
    "office_name": "Dallas",
    "longitude": "-96.879234313965",
    "zipcode": "75006",
    "latitude": "32.979763031006",
    "streetname": "El Dorado",
    "streetnum": "2139",
    "city": "Carrollton"
  },
  {
    "office_name": "Fort Worth",
    "longitude": "-97.263618000000",
    "zipcode": "76117",
    "latitude": "32.803848000000",
    "streetname": "Ezell",
    "streetnum": "5613",
    "city": "Haltom City"
  },
  {
    "office_name": "Houston Central",
    "longitude": "-95.189842000000",
    "zipcode": "77546",
    "latitude": "29.539778000000",
    "streetname": "Edenvale",
    "streetnum": "15619",
    "city": "Friendswood"
  },
  {
    "office_name": "Fort Worth",
    "longitude": "-97.179443000000",
    "zipcode": "76013",
    "latitude": "32.708031000000",
    "streetname": "Ramsgate",
    "streetnum": "4606",
    "city": "Arlington"
  },
  {
    "office_name": "Fort Worth",
    "longitude": "-97.267654000000",
    "zipcode": "76119",
    "latitude": "32.669514000000",
    "streetname": "Orchard",
    "streetnum": "3804",
    "city": "Forest Hills"
  },
  {
    "office_name": "Atlanta",
    "longitude": "-84.617256164551",
    "zipcode": "30064",
    "latitude": "33.953624725342",
    "streetname": "Rock Garden",
    "streetnum": "190",
    "city": "Marietta"
  },
  {
    "office_name": "Orange",
    "longitude": "-118.453285000000",
    "zipcode": "91405",
    "latitude": "34.207794000000",
    "streetname": "Covello",
    "streetnum": "14701",
    "city": "Van Nuys"
  },
  {
    "office_name": "Philadelphia",
    "longitude": "0.000000000000",
    "zipcode": "19083",
    "latitude": "0.000000000000",
    "streetname": "MOEWYN",
    "streetnum": "1",
    "city": "HAVERTOWN"
  },
  {
    "office_name": "Fort Worth",
    "longitude": "-97.359466000000",
    "zipcode": "76133",
    "latitude": "32.679161000000",
    "streetname": "W. Fuller",
    "streetnum": "2909",
    "city": "Fort Worth"
  },
  {
    "office_name": "Orange",
    "longitude": "-118.186180000000",
    "zipcode": "90032",
    "latitude": "34.087779000000",
    "streetname": "Oak Hill",
    "streetnum": "3624",
    "city": "Montecito Heights"
  },
  {
    "office_name": "Denton",
    "longitude": "-96.880340000000",
    "zipcode": "75056",
    "latitude": "33.100997000000",
    "streetname": "Sherman",
    "streetnum": "5148",
    "city": "The Colony"
  },
  {
    "office_name": "Fort Worth",
    "longitude": "-97.337623596191",
    "zipcode": "76110",
    "latitude": "32.711692810059",
    "streetname": "Ryan Place",
    "streetnum": "2745",
    "city": "Fort Worth"
  },
  {
    "office_name": "Orange",
    "longitude": "-118.151824951170",
    "zipcode": "91001",
    "latitude": "34.182456970215",
    "streetname": "El Sereno",
    "streetnum": "2134",
    "city": "Altadena"
  },
  {
    "office_name": "Houston Central",
    "longitude": "-95.469787000000",
    "zipcode": "77380",
    "latitude": "30.147647000000",
    "streetname": "Yellowood Ct",
    "streetnum": "2",
    "city": "The Woodlands"
  },
  {
    "office_name": "Houston Central",
    "longitude": "-95.478889000000",
    "zipcode": "77092",
    "latitude": "29.835533000000",
    "streetname": "Verdome",
    "streetnum": "6014",
    "city": "Houston"
  },
  {
    "office_name": "Orange",
    "longitude": "-118.058990000000",
    "zipcode": "91007",
    "latitude": "34.120583000000",
    "streetname": "Golden West",
    "streetnum": "6628",
    "city": "Arcadia"
  },
  {
    "office_name": "Orange",
    "longitude": "-117.702857000000",
    "zipcode": "92653",
    "latitude": "33.589916000000",
    "streetname": "Via Lomas",
    "streetnum": "25783",
    "city": "LAGUNA HILLS"
  },
  {
    "office_name": "Philadelphia",
    "longitude": "-75.288555959200",
    "zipcode": "19018",
    "latitude": "39.919696714300",
    "streetname": "STRATFORD",
    "streetnum": "35",
    "city": "ALDAN"
  },
  {
    "office_name": "Houston Central",
    "longitude": "-95.453155000000",
    "zipcode": "77096",
    "latitude": "29.677347000000",
    "streetname": "Sarong",
    "streetnum": "4434",
    "city": "Houston"
  },
  {
    "office_name": "Orange",
    "longitude": "-118.404037000000",
    "zipcode": "90210",
    "latitude": "34.111568000000",
    "streetname": "COLDWATER CANYON",
    "streetnum": "2180",
    "city": "Beverly Hills"
  },
  {
    "office_name": "San Antonio Central",
    "longitude": "-98.503539000000",
    "zipcode": "78212",
    "latitude": "29.451692000000",
    "streetname": "CRAIG PL",
    "streetnum": "616",
    "city": "San Antonio"
  },
  {
    "office_name": "San Antonio Central",
    "longitude": "-98.566810000000",
    "zipcode": "78228",
    "latitude": "29.480466000000",
    "streetname": "",
    "streetnum": "0",
    "city": "San Antonio"
  },
  {
    "office_name": "Houston Central",
    "longitude": "-95.774909973145",
    "zipcode": "77494",
    "latitude": "29.764383316040",
    "streetname": "Diamond Knoll",
    "streetnum": "23239",
    "city": "KATY"
  },
  {
    "office_name": "San Antonio Central",
    "longitude": "-98.527511596680",
    "zipcode": "78221",
    "latitude": "29.347339630127",
    "streetname": "DRURY LN",
    "streetnum": "1422",
    "city": "San Antonio"
  },
  {
    "office_name": "Houston Central",
    "longitude": "-95.383821000000",
    "zipcode": "77009",
    "latitude": "29.807310000000",
    "streetname": "23rd",
    "streetnum": "1124",
    "city": "Houston"
  },
  {
    "office_name": "Dallas",
    "longitude": "-96.688140869141",
    "zipcode": "75227",
    "latitude": "32.790779113770",
    "streetname": "Rolling Fork",
    "streetnum": "7178",
    "city": "Dallas"
  },
  {
    "office_name": "Austin",
    "longitude": "0.000000000000",
    "zipcode": "78757",
    "latitude": "0.000000000000",
    "streetname": "Grover",
    "streetnum": "5909",
    "city": "Austin"
  },
  {
    "office_name": "Orange",
    "longitude": "-117.804992000000",
    "zipcode": "92780",
    "latitude": "33.745712000000",
    "streetname": "Keith",
    "streetnum": "12962",
    "city": "Tustin"
  },
  {
    "office_name": "Houston Central",
    "longitude": "-95.766128540039",
    "zipcode": "77450",
    "latitude": "29.776802062988",
    "streetname": "Hockaday",
    "streetnum": "22806",
    "city": "Katy"
  },
  {
    "office_name": "Philadelphia",
    "longitude": "0.000000000000",
    "zipcode": "19145",
    "latitude": "0.000000000000",
    "streetname": "GLADSTONE",
    "streetnum": "1818",
    "city": "PHILADELPHIA"
  },
  {
    "office_name": "Dallas",
    "longitude": "-96.641769000000",
    "zipcode": "75149",
    "latitude": "32.774578000000",
    "streetname": "Whippoorwill",
    "streetnum": "2635",
    "city": "Mesquite"
  },
  {
    "office_name": "San Antonio Central",
    "longitude": "-98.539204000000",
    "zipcode": "78230",
    "latitude": "29.516701000000",
    "streetname": "KERRYBROOK CT",
    "streetnum": "2719",
    "city": "San Antonio"
  },
  {
    "office_name": "San Antonio Central",
    "longitude": "-98.535683000000",
    "zipcode": "78201",
    "latitude": "29.456806000000",
    "streetname": "Magnolia Ave",
    "streetnum": "2218",
    "city": "San Antonio"
  },
  {
    "office_name": "Orange",
    "longitude": "-118.075515000000",
    "zipcode": "90720",
    "latitude": "33.776847000000",
    "streetname": "Yellowtail",
    "streetnum": "3232",
    "city": "Rossmoor"
  },
  {
    "office_name": "San Antonio Central",
    "longitude": "-98.440086000000",
    "zipcode": "78209",
    "latitude": "29.467672000000",
    "streetname": "Hathaway",
    "streetnum": "442",
    "city": "San Antonio"
  },
  {
    "office_name": "Houston Central",
    "longitude": "-95.348335000000",
    "zipcode": "77584",
    "latitude": "29.543685000000",
    "streetname": "Duesenberg",
    "streetnum": "4435",
    "city": "Pearland"
  },
  {
    "office_name": "Atlanta",
    "longitude": "-84.529373168945",
    "zipcode": "30064",
    "latitude": "33.948688507080",
    "streetname": "mimosa",
    "streetnum": "782",
    "city": "marietta"
  },
  {
    "office_name": "Houston Central",
    "longitude": "-95.457603454590",
    "zipcode": "77092",
    "latitude": "29.837287902832",
    "streetname": "Blanton Blv",
    "streetnum": "4810",
    "city": "Houston"
  },
  {
    "office_name": "Houston Central",
    "longitude": "-95.365356000000",
    "zipcode": "77004",
    "latitude": "29.718669000000",
    "streetname": "Arbor St",
    "streetnum": "3226",
    "city": "Houston"
  },
  {
    "office_name": "Orange",
    "longitude": "-118.196639000000",
    "zipcode": "90033",
    "latitude": "34.063281500000",
    "streetname": "Medford",
    "streetnum": "2414",
    "city": "Los Angeles"
  },
  {
    "office_name": "San Antonio Central",
    "longitude": "-98.320655822754",
    "zipcode": "78154",
    "latitude": "29.573530197144",
    "streetname": "Aries",
    "streetnum": "8416",
    "city": "Selma"
  },
  {
    "office_name": "Dallas",
    "longitude": "-96.969749000000",
    "zipcode": "75060",
    "latitude": "32.785659000000",
    "streetname": "Ruby",
    "streetnum": "1941",
    "city": "Irving"
  },
  {
    "office_name": "Fort Worth",
    "longitude": "-1.000000000000",
    "zipcode": "76135",
    "latitude": "-1.000000000000",
    "streetname": "Slay",
    "streetnum": "7865",
    "city": "Fort Worth"
  },
  {
    "office_name": "Dallas",
    "longitude": "-96.779708862305",
    "zipcode": "75240",
    "latitude": "32.929954528809",
    "streetname": "Rolling Hillls",
    "streetnum": "13215",
    "city": "Dallas"
  },
  {
    "office_name": "Houston Central",
    "longitude": "-95.539062500000",
    "zipcode": "77379",
    "latitude": "30.026998519897",
    "streetname": "Comoro Ln",
    "streetnum": "17618",
    "city": "Spring"
  },
  {
    "office_name": "Orange",
    "longitude": "-118.552009582520",
    "zipcode": "91356",
    "latitude": "34.171672821045",
    "streetname": "Sylvia",
    "streetnum": "5526",
    "city": "Tarzana"
  },
  {
    "office_name": "San Antonio Central",
    "longitude": "-98.460266000000",
    "zipcode": "78209",
    "latitude": "29.508945000000",
    "streetname": "Camellia",
    "streetnum": "75",
    "city": "San Antonio"
  },
  {
    "office_name": "San Antonio Central",
    "longitude": "-98.409652000000",
    "zipcode": "78218",
    "latitude": "29.483310000000",
    "streetname": "Renault",
    "streetnum": "4318",
    "city": "San Antonio"
  },
  {
    "office_name": "San Antonio Central",
    "longitude": "0.000000000000",
    "zipcode": "78209",
    "latitude": "0.000000000000",
    "streetname": "ROBINHOOD",
    "streetnum": "205",
    "city": "San Antonio"
  },
  {
    "office_name": "Atlanta",
    "longitude": "-84.409492000000",
    "zipcode": "30075",
    "latitude": "34.019660000000",
    "streetname": "Sturbridge Crescent NE",
    "streetnum": "4841",
    "city": "roswell"
  },
  {
    "office_name": "Houston Central",
    "longitude": "-95.541813000000",
    "zipcode": "77379",
    "latitude": "30.022860000000",
    "streetname": "Northbridge Circle",
    "streetnum": "8014",
    "city": "Spring"
  },
  {
    "office_name": "Fort Worth",
    "longitude": "-97.086013000000",
    "zipcode": "76010",
    "latitude": "32.711864000000",
    "streetname": "Glynn Oaks",
    "streetnum": "1606",
    "city": "ARLINGTON"
  },
  {
    "office_name": "Fort Worth",
    "longitude": "-97.169189000000",
    "zipcode": "76034",
    "latitude": "32.865028000000",
    "streetname": "Woodbine",
    "streetnum": "200",
    "city": "Colleyville"
  },
  {
    "office_name": "Dallas",
    "longitude": "-96.613494000000",
    "zipcode": "75043",
    "latitude": "32.860744000000",
    "streetname": "Thistle",
    "streetnum": "305",
    "city": "Garland"
  },
  {
    "office_name": "Orange",
    "longitude": "-118.118501000000",
    "zipcode": "90815",
    "latitude": "33.794523000000",
    "streetname": "Radnor",
    "streetnum": "2120",
    "city": "Long Beach"
  },
  {
    "office_name": "Houston Central",
    "longitude": "-95.242103000000",
    "zipcode": "77339",
    "latitude": "30.037664000000",
    "streetname": "Chestnut Ridge",
    "streetnum": "1418",
    "city": "Humble"
  },
  {
    "office_name": "Houston Central",
    "longitude": "-95.592582702637",
    "zipcode": "77429",
    "latitude": "29.955821990967",
    "streetname": "Mill Ridge Dr",
    "streetnum": "12511",
    "city": "Cypress"
  },
  {
    "office_name": "San Antonio Central",
    "longitude": "-98.536216000000",
    "zipcode": "78201",
    "latitude": "29.456380000000",
    "streetname": "Mistletoe",
    "streetnum": "2237",
    "city": "San Antonio"
  },
  {
    "office_name": "Fort Worth",
    "longitude": "-97.110115000000",
    "zipcode": "76040",
    "latitude": "32.827537000000",
    "streetname": "Marlene",
    "streetnum": "1705",
    "city": "Euless"
  },
  {
    "office_name": "Houston Central",
    "longitude": "-95.179283000000",
    "zipcode": "77345",
    "latitude": "30.073286000000",
    "streetname": "Mountain Peak",
    "streetnum": "4239",
    "city": "Kingwood"
  },
  {
    "office_name": "Fort Worth",
    "longitude": "-97.208679000000",
    "zipcode": "76112",
    "latitude": "32.734786000000",
    "streetname": "Routt",
    "streetnum": "7009",
    "city": "Fort Worth"
  },
  {
    "office_name": "San Antonio Central",
    "longitude": "-98.437553000000",
    "zipcode": "78217",
    "latitude": "29.528486000000",
    "streetname": "Astronaut",
    "streetnum": "9710",
    "city": "San Antonio"
  },
  {
    "office_name": "San Antonio Central",
    "longitude": "-98.536087000000",
    "zipcode": "78201",
    "latitude": "29.455657000000",
    "streetname": "Mistletoe",
    "streetnum": "2224",
    "city": "San Antonio"
  },
  {
    "office_name": "Philadelphia",
    "longitude": "0.000000000000",
    "zipcode": "19145",
    "latitude": "0.000000000000",
    "streetname": "SIGEL",
    "streetnum": "1739",
    "city": "PHILADELPHIA"
  },
  {
    "office_name": "Dallas",
    "longitude": "-97.460060000000",
    "zipcode": "76116",
    "latitude": "32.716564000000",
    "streetname": "Chapin",
    "streetnum": "8278",
    "city": "Fort Worth"
  },
  {
    "office_name": "Atlanta",
    "longitude": "-84.303688049316",
    "zipcode": "30316",
    "latitude": "33.700927734375",
    "streetname": "Reveille",
    "streetnum": "2929",
    "city": "Gresham Park"
  },
  {
    "office_name": "San Antonio Central",
    "longitude": "-98.526565000000",
    "zipcode": "78201",
    "latitude": "29.458091000000",
    "streetname": "Mulberry",
    "streetnum": "1824",
    "city": "San Antonio"
  },
  {
    "office_name": "Fort Worth",
    "longitude": "-97.109711000000",
    "zipcode": "76051",
    "latitude": "32.973415000000",
    "streetname": "Peninsula",
    "streetnum": "2828",
    "city": "Grapevine"
  },
  {
    "office_name": "Dallas",
    "longitude": "-96.755706000000",
    "zipcode": "75243",
    "latitude": "32.900203000000",
    "streetname": "Westfield",
    "streetnum": "8539",
    "city": "Dallas"
  },
  {
    "office_name": "San Antonio Central",
    "longitude": "-98.470100000000",
    "zipcode": "78208",
    "latitude": "29.442911000000",
    "streetname": "Grayson",
    "streetnum": "902",
    "city": "san antonio"
  },
  {
    "office_name": "Fort Worth",
    "longitude": "-97.364982000000",
    "zipcode": "76133",
    "latitude": "32.655994000000",
    "streetname": "Kelvin",
    "streetnum": "3408",
    "city": "Fort Worth"
  },
  {
    "office_name": "Dallas",
    "longitude": "-96.633247375488",
    "zipcode": "75043",
    "latitude": "32.863109588623",
    "streetname": "Rollingridge",
    "streetnum": "374",
    "city": "Garland"
  },
  {
    "office_name": "Orange",
    "longitude": "-117.212409000000",
    "zipcode": "92586",
    "latitude": "33.699901000000",
    "streetname": "Portsmouth",
    "streetnum": "28985",
    "city": "Menifee"
  },
  {
    "office_name": "Dallas",
    "longitude": "-96.896934509277",
    "zipcode": "75006",
    "latitude": "32.973545074463",
    "streetname": "Dover",
    "streetnum": "2103",
    "city": "Carrollton"
  },
  {
    "office_name": "Fort Worth",
    "longitude": "-97.443840026855",
    "zipcode": "76116",
    "latitude": "32.708683013916",
    "streetname": "Pensacola",
    "streetnum": "7425",
    "city": "Fort Worth"
  },
  {
    "office_name": "Houston Central",
    "longitude": "-95.514251000000",
    "zipcode": "77066",
    "latitude": "29.975244000000",
    "streetname": "Old Lodge",
    "streetnum": "5827",
    "city": "Houston"
  },
  {
    "office_name": "Fort Worth",
    "longitude": "-97.074821000000",
    "zipcode": "76010",
    "latitude": "32.723865000000",
    "streetname": "Miriam",
    "streetnum": "2106",
    "city": "Arlington"
  },
  {
    "office_name": "Orange",
    "longitude": "-118.117126000000",
    "zipcode": "91106",
    "latitude": "34.155139000000",
    "streetname": "Monte Vista",
    "streetnum": "1614",
    "city": "Pasadena"
  },
  {
    "office_name": "Houston Central",
    "longitude": "-95.441535000000",
    "zipcode": "77008",
    "latitude": "29.802549000000",
    "streetname": "greengrass",
    "streetnum": "1818",
    "city": "Houston"
  },
  {
    "office_name": "San Antonio Central",
    "longitude": "-98.645477294922",
    "zipcode": "78201",
    "latitude": "29.402076721191",
    "streetname": "Buggywhip",
    "streetnum": "7918",
    "city": "san antonio"
  },
  {
    "office_name": "Houston Central",
    "longitude": "-95.600448000000",
    "zipcode": "77077",
    "latitude": "29.755872000000",
    "streetname": "Carriage Hill Dr",
    "streetnum": "12435",
    "city": "Houston"
  },
  {
    "office_name": "Philadelphia",
    "longitude": "-75.152798469400",
    "zipcode": "19148",
    "latitude": "39.921370571400",
    "streetname": "WINTON",
    "streetnum": "336",
    "city": "PHILADELPHIA"
  },
  {
    "office_name": "Houston Central",
    "longitude": "-95.596771000000",
    "zipcode": "77479",
    "latitude": "29.579814000000",
    "streetname": "Winchester",
    "streetnum": "3126",
    "city": "Sugar Land"
  },
  {
    "office_name": "San Antonio Central",
    "longitude": "-98.473602000000",
    "zipcode": "78202",
    "latitude": "29.432439000000",
    "streetname": "Burleson St",
    "streetnum": "428",
    "city": "San Antonio"
  },
  {
    "office_name": "San Antonio Central",
    "longitude": "-98.392379000000",
    "zipcode": "78233",
    "latitude": "29.557384000000",
    "streetname": "El Sendero",
    "streetnum": "13010",
    "city": "San Antonio"
  },
  {
    "office_name": "Houston Central",
    "longitude": "-95.452301000000",
    "zipcode": "77018",
    "latitude": "29.835912000000",
    "streetname": "Latexo Dr",
    "streetnum": "2223",
    "city": "Houston"
  },
  {
    "office_name": "Houston Central",
    "longitude": "-95.489196777344",
    "zipcode": "77035",
    "latitude": "29.657499313354",
    "streetname": "Bellfort",
    "streetnum": "5810",
    "city": "HOUSTON"
  },
  {
    "office_name": "Houston Central",
    "longitude": "-95.183509000000",
    "zipcode": "77546",
    "latitude": "29.526231000000",
    "streetname": "Timpani",
    "streetnum": "5431",
    "city": "Friendswood"
  },
  {
    "office_name": "Dallas",
    "longitude": "-96.690902000000",
    "zipcode": "75218",
    "latitude": "32.861846000000",
    "streetname": "Carissa",
    "streetnum": "11111",
    "city": "Dallas"
  },
  {
    "office_name": "Fort Worth",
    "longitude": "-97.423843383789",
    "zipcode": "76116",
    "latitude": "32.732372283936",
    "streetname": "Darwood",
    "streetnum": "6345",
    "city": "Fort Worth"
  },
  {
    "office_name": "Fort Worth",
    "longitude": "-97.312850000000",
    "zipcode": "76111",
    "latitude": "32.784446000000",
    "streetname": "Honeysuckle",
    "streetnum": "2305",
    "city": "Fort Worth"
  },
  {
    "office_name": "Dallas",
    "longitude": "-96.772438049316",
    "zipcode": "75230",
    "latitude": "32.906604766846",
    "streetname": "Malabar",
    "streetnum": "7538",
    "city": "Dallas"
  },
  {
    "office_name": "Fort Worth",
    "longitude": "-97.357086000000",
    "zipcode": "76164",
    "latitude": "32.774013000000",
    "streetname": "Lagonda",
    "streetnum": "1503",
    "city": "Fort Worth"
  },
  {
    "office_name": "Philadelphia",
    "longitude": "-75.161911000000",
    "zipcode": "19147",
    "latitude": "39.932983000000",
    "streetname": "S Warnock",
    "streetnum": "1316",
    "city": "Philadelphia"
  },
  {
    "office_name": "Fort Worth",
    "longitude": "-97.364059000000",
    "zipcode": "76164",
    "latitude": "32.787609000000",
    "streetname": "Chestnut",
    "streetnum": "2317",
    "city": "Fort Worth"
  },
  {
    "office_name": "San Antonio Central",
    "longitude": "-98.607025146484",
    "zipcode": "78238",
    "latitude": "29.470024108887",
    "streetname": "Clearbrook",
    "streetnum": "6023",
    "city": "San Antonio"
  },
  {
    "office_name": "Philadelphia",
    "longitude": "-75.151939979600",
    "zipcode": "19148",
    "latitude": "39.917459530600",
    "streetname": "AMERICAN",
    "streetnum": "2438",
    "city": "PHILADELPHIA"
  },
  {
    "office_name": "Philadelphia",
    "longitude": "-75.154060857100",
    "zipcode": "19148",
    "latitude": "39.918081428600",
    "streetname": "GLADSTONE",
    "streetnum": "314",
    "city": "PHILADELPHIA"
  },
  {
    "office_name": "Fort Worth",
    "longitude": "-97.339393000000",
    "zipcode": "76134",
    "latitude": "32.654552000000",
    "streetname": "Rockmoor",
    "streetnum": "1304",
    "city": "Edgecliff Village"
  },
  {
    "office_name": "Houston Central",
    "longitude": "-95.726707458496",
    "zipcode": "77450",
    "latitude": "29.759273529053",
    "streetname": "Galleon Oaks",
    "streetnum": "1727",
    "city": "Katy"
  },
  {
    "office_name": "Houston Central",
    "longitude": "-95.471305000000",
    "zipcode": "77092",
    "latitude": "29.823995000000",
    "streetname": "Lamonte",
    "streetnum": "5403",
    "city": "Houston"
  },
  {
    "office_name": "Fort Worth",
    "longitude": "-97.064239000000",
    "zipcode": "76010",
    "latitude": "32.724296000000",
    "streetname": "Skylark",
    "streetnum": "2507",
    "city": "Arlington"
  },
  {
    "office_name": "Orange",
    "longitude": "-118.282272338870",
    "zipcode": "90007",
    "latitude": "34.035167694092",
    "streetname": "22nd",
    "streetnum": "1032",
    "city": "Los Angeles"
  },
  {
    "office_name": "Orange",
    "longitude": "-118.040641000000",
    "zipcode": "90605",
    "latitude": "33.946048000000",
    "streetname": "Maryknoll",
    "streetnum": "9810",
    "city": "Whittier"
  },
  {
    "office_name": "Philadelphia",
    "longitude": "-75.224892351400",
    "zipcode": "19128",
    "latitude": "40.033068864900",
    "streetname": "RIPKA",
    "streetnum": "316",
    "city": "PHILADELPHIA"
  },
  {
    "office_name": "Dallas",
    "longitude": "-96.672622000000",
    "zipcode": "75070",
    "latitude": "33.173965000000",
    "streetname": "Hawkins",
    "streetnum": "3909",
    "city": "McKinney"
  },
  {
    "office_name": "Atlanta",
    "longitude": "-84.335252100000",
    "zipcode": "30317",
    "latitude": "33.750408800000",
    "streetname": "PAXON",
    "streetnum": "1595",
    "city": "Atlanta"
  },
  {
    "office_name": "Atlanta",
    "longitude": "-84.332611083984",
    "zipcode": "30317",
    "latitude": "33.748828887939",
    "streetname": "Dixie",
    "streetnum": "1679",
    "city": "Atlanta"
  },
  {
    "office_name": "Atlanta",
    "longitude": "-84.059753417969",
    "zipcode": "30039",
    "latitude": "33.774650573730",
    "streetname": "Riveredge",
    "streetnum": "4824",
    "city": "Snellville"
  },
  {
    "office_name": "Atlanta",
    "longitude": "-84.426078000000",
    "zipcode": "30344",
    "latitude": "33.686534000000",
    "streetname": "Jewel",
    "streetnum": "2544",
    "city": "East Point"
  },
  {
    "office_name": "Fort Worth",
    "longitude": "-96.901245117188",
    "zipcode": "75137",
    "latitude": "32.624599456787",
    "streetname": "Blueridge",
    "streetnum": "415",
    "city": "Duncanville"
  },
  {
    "office_name": "Fort Worth",
    "longitude": "-96.629493713379",
    "zipcode": "75043",
    "latitude": "32.859889984131",
    "streetname": "Meadowhill",
    "streetnum": "413",
    "city": "Garland"
  },
  {
    "office_name": "Austin",
    "longitude": "0.000000000000",
    "zipcode": "78759",
    "latitude": "0.000000000000",
    "streetname": "Blackmoor",
    "streetnum": "11226",
    "city": "Austin"
  },
  {
    "office_name": "Fort Worth",
    "longitude": "-97.091049000000",
    "zipcode": "76039",
    "latitude": "32.852306000000",
    "streetname": "Glenn",
    "streetnum": "1103",
    "city": "Euless"
  },
  {
    "office_name": "Dallas",
    "longitude": "-96.693397000000",
    "zipcode": "75218",
    "latitude": "32.851638000000",
    "streetname": "Rogue",
    "streetnum": "11614",
    "city": "Dallas"
  },
  {
    "office_name": "Atlanta",
    "longitude": "-84.424697875977",
    "zipcode": "30310",
    "latitude": "33.709175109863",
    "streetname": "Lanier",
    "streetnum": "1681",
    "city": "Atlanta"
  },
  {
    "office_name": "Atlanta",
    "longitude": "-84.416389465332",
    "zipcode": "30310",
    "latitude": "33.698116302490",
    "streetname": "perkerson",
    "streetnum": "2065",
    "city": "atlanta"
  },
  {
    "office_name": "San Antonio Central",
    "longitude": "-98.653117418289",
    "zipcode": "78250",
    "latitude": "29.492107853293",
    "streetname": "Timber Crest",
    "streetnum": "8507",
    "city": "San Antonio"
  },
  {
    "office_name": "Atlanta",
    "longitude": "-84.343933105469",
    "zipcode": "30316",
    "latitude": "33.740833282471",
    "streetname": "Haas Ave Se",
    "streetnum": "486",
    "city": "Atlanta"
  },
  {
    "office_name": "Fort Worth",
    "longitude": "-97.405632000000",
    "zipcode": "76003",
    "latitude": "32.331028000000",
    "streetname": "Hilltop",
    "streetnum": "1217",
    "city": "Cleburne"
  },
  {
    "office_name": "Fort Worth",
    "longitude": "-97.142372000000",
    "zipcode": "76201",
    "latitude": "33.227367000000",
    "streetname": "Emery",
    "streetnum": "1003",
    "city": "Denton"
  },
  {
    "office_name": "Orange",
    "longitude": "-117.775009000000",
    "zipcode": "91766",
    "latitude": "34.051654000000",
    "streetname": "Meserve",
    "streetnum": "1603",
    "city": "Pomona"
  },
  {
    "office_name": "Dallas",
    "longitude": "-96.759407000000",
    "zipcode": "75080",
    "latitude": "32.971073000000",
    "streetname": "Melrose",
    "streetnum": "1124",
    "city": "Richardson"
  },
  {
    "office_name": "Atlanta",
    "longitude": "-84.350448608398",
    "zipcode": "30316",
    "latitude": "33.728408813477",
    "streetname": "Gilbert",
    "streetnum": "952",
    "city": "Atlanta"
  },
  {
    "office_name": "Dallas",
    "longitude": "-96.544296000000",
    "zipcode": "75181",
    "latitude": "32.745693000000",
    "streetname": "Springwood",
    "streetnum": "1430",
    "city": "Mesquite"
  },
  {
    "office_name": "Fort Worth",
    "longitude": "-97.309570312500",
    "zipcode": "76111",
    "latitude": "32.781547546387",
    "streetname": "Primrose",
    "streetnum": "2524",
    "city": "Fort Worth"
  },
  {
    "office_name": "Houston Central",
    "longitude": "-95.536071000000",
    "zipcode": "77063",
    "latitude": "29.726028000000",
    "streetname": "Judalon",
    "streetnum": "9619",
    "city": "Houston"
  },
  {
    "office_name": "Fort Worth",
    "longitude": "-97.281150817871",
    "zipcode": "76103",
    "latitude": "32.743034362793",
    "streetname": "Purington",
    "streetnum": "3027",
    "city": "Fort Worth"
  },
  {
    "office_name": "San Antonio Central",
    "longitude": "-98.457092000000",
    "zipcode": "78210",
    "latitude": "29.395090000000",
    "streetname": "AVANT AVE",
    "streetnum": "846",
    "city": "San Antonio"
  },
  {
    "office_name": "Houston Central",
    "longitude": "-95.037483000000",
    "zipcode": "77520",
    "latitude": "29.775793000000",
    "streetname": "Tanglewood",
    "streetnum": "123",
    "city": "Baytown"
  },
  {
    "office_name": "Atlanta",
    "longitude": "-84.453742980957",
    "zipcode": "30067",
    "latitude": "33.926998138428",
    "streetname": "terrell crosssing se",
    "streetnum": "752",
    "city": "marietta"
  },
  {
    "office_name": "Fort Worth",
    "longitude": "-97.373268000000",
    "zipcode": "76133",
    "latitude": "32.675216000000",
    "streetname": "Overton",
    "streetnum": "4828",
    "city": "Fort Worth"
  },
  {
    "office_name": "Dallas",
    "longitude": "-96.950699000000",
    "zipcode": "75249",
    "latitude": "32.623405000000",
    "streetname": "Sophora",
    "streetnum": "9339",
    "city": "Dallas"
  },
  {
    "office_name": "Fort Worth",
    "longitude": "-97.492912000000",
    "zipcode": "76108",
    "latitude": "32.748863000000",
    "streetname": "Pilot Point",
    "streetnum": "9909",
    "city": "Fort Worth"
  },
  {
    "office_name": "Houston Central",
    "longitude": "-95.389579772949",
    "zipcode": "77373",
    "latitude": "30.046541213989",
    "streetname": "Heatherknoll",
    "streetnum": "2710",
    "city": "Spring"
  },
  {
    "office_name": "Dallas",
    "longitude": "-97.014984000000",
    "zipcode": "75050",
    "latitude": "32.755947000000",
    "streetname": "Blackburn",
    "streetnum": "829",
    "city": "Grand Prairie"
  },
  {
    "office_name": "San Antonio Central",
    "longitude": "-98.663834000000",
    "zipcode": "78245",
    "latitude": "29.427038000000",
    "streetname": "LAS PUERTAS",
    "streetnum": "734",
    "city": "San Antonio"
  },
  {
    "office_name": "San Antonio Central",
    "longitude": "-98.458358000000",
    "zipcode": "78209",
    "latitude": "29.495962000000",
    "streetname": "Brightwood",
    "streetnum": "414",
    "city": "San Antonio"
  },
  {
    "office_name": "Houston Central",
    "longitude": "-95.730308532715",
    "zipcode": "77406",
    "latitude": "29.624919891357",
    "streetname": "Plantation Dr",
    "streetnum": "1519",
    "city": "Richmond"
  },
  {
    "office_name": "San Antonio Central",
    "longitude": "-98.686058000000",
    "zipcode": "78250",
    "latitude": "29.508750000000",
    "streetname": "Hardesty",
    "streetnum": "7358",
    "city": "San Antonio"
  },
  {
    "office_name": "San Antonio Central",
    "longitude": "-98.681922000000",
    "zipcode": "78245",
    "latitude": "29.430269000000",
    "streetname": "THRASHER DR",
    "streetnum": "842",
    "city": "San Antonio"
  },
  {
    "office_name": "Dallas",
    "longitude": "-96.812416000000",
    "zipcode": "75219",
    "latitude": "32.806995000000",
    "streetname": "Shelby",
    "streetnum": "2710",
    "city": "Dallas"
  },
  {
    "office_name": "Houston Central",
    "longitude": "-95.519561767578",
    "zipcode": "77389",
    "latitude": "30.100637435913",
    "streetname": "Allentown Dr",
    "streetnum": "6419",
    "city": "Spring"
  },
  {
    "office_name": "Houston Central",
    "longitude": "-95.509231000000",
    "zipcode": "77086",
    "latitude": "29.922309000000",
    "streetname": "Martin Wood",
    "streetnum": "7831",
    "city": "Houston"
  },
  {
    "office_name": "Houston Central",
    "longitude": "-95.563354000000",
    "zipcode": "77042",
    "latitude": "29.741268000000",
    "streetname": "Burgoyne",
    "streetnum": "10603",
    "city": "Houston"
  },
  {
    "office_name": "Philadelphia",
    "longitude": "-75.120734363600",
    "zipcode": "19125",
    "latitude": "39.983571181800",
    "streetname": "SEPVIVA",
    "streetnum": "2643",
    "city": "PHILADELPHIA"
  },
  {
    "office_name": "Fort Worth",
    "longitude": "-97.401094000000",
    "zipcode": "76107",
    "latitude": "32.736151000000",
    "streetname": "Pershing",
    "streetnum": "5308",
    "city": "Fort Worth"
  },
  {
    "office_name": "Houston Central",
    "longitude": "-95.502510000000",
    "zipcode": "77066",
    "latitude": "29.980461000000",
    "streetname": "Gaylawood",
    "streetnum": "12711",
    "city": "Houston"
  },
  {
    "office_name": "San Antonio Central",
    "longitude": "-98.395640000000",
    "zipcode": "78219",
    "latitude": "29.455289000000",
    "streetname": "Alan Shepard",
    "streetnum": "2615",
    "city": "San Antonio"
  },
  {
    "office_name": "Atlanta",
    "longitude": "-84.272666931152",
    "zipcode": "30033",
    "latitude": "33.814826965332",
    "streetname": "Blueberry",
    "streetnum": "1166",
    "city": "Decatur"
  },
  {
    "office_name": "San Antonio Central",
    "longitude": "-98.437485000000",
    "zipcode": "78220",
    "latitude": "29.404774000000",
    "streetname": "J ST",
    "streetnum": "635",
    "city": "San Antonio"
  },
  {
    "office_name": "Atlanta",
    "longitude": "-84.277198000000",
    "zipcode": "30030",
    "latitude": "33.751617000000",
    "streetname": "THOMAS",
    "streetnum": "1436",
    "city": "Decatur"
  },
  {
    "office_name": "Dallas",
    "longitude": "-96.730003000000",
    "zipcode": "75243",
    "latitude": "32.902820000000",
    "streetname": "Atherton",
    "streetnum": "9654",
    "city": "Dallas"
  },
  {
    "office_name": "Philadelphia",
    "longitude": "-75.174788346900",
    "zipcode": "19145",
    "latitude": "39.914667346900",
    "streetname": "16TH",
    "streetnum": "2804",
    "city": "PHILADELPHIA"
  },
  {
    "office_name": "Philadelphia",
    "longitude": "-75.178487408200",
    "zipcode": "19146",
    "latitude": "39.933860346900",
    "streetname": "GERRITT",
    "streetnum": "2047",
    "city": "PHILADELPHIA"
  },
  {
    "office_name": "Houston Central",
    "longitude": "-95.744705200195",
    "zipcode": "77450",
    "latitude": "29.771314620972",
    "streetname": "Park Meadow",
    "streetnum": "707",
    "city": "Katy"
  },
  {
    "office_name": "Fort Worth",
    "longitude": "-97.398338000000",
    "zipcode": "76107",
    "latitude": "32.719024000000",
    "streetname": "Humbert",
    "streetnum": "5132",
    "city": "Fort Worth"
  },
  {
    "office_name": "Dallas",
    "longitude": "-96.704269000000",
    "zipcode": "75227",
    "latitude": "32.789848000000",
    "streetname": "Meadowick",
    "streetnum": "5617",
    "city": "Dallas"
  },
  {
    "office_name": "San Antonio Central",
    "longitude": "-97.969769686460",
    "zipcode": "78155",
    "latitude": "29.565466940403",
    "streetname": "Mitchell",
    "streetnum": "513",
    "city": "Seguin"
  },
  {
    "office_name": "Houston Central",
    "longitude": "-95.493598000000",
    "zipcode": "77096",
    "latitude": "29.665552000000",
    "streetname": "Dunlap St",
    "streetnum": "10614",
    "city": "Houston"
  },
  {
    "office_name": "Dallas",
    "longitude": "-96.681714000000",
    "zipcode": "75228",
    "latitude": "32.836869000000",
    "streetname": "Fern",
    "streetnum": "10361",
    "city": "Dallas"
  },
  {
    "office_name": "Orange",
    "longitude": "-117.816697000000",
    "zipcode": "92780",
    "latitude": "33.730592000000",
    "streetname": "Quent",
    "streetnum": "14212",
    "city": "Tustin"
  },
  {
    "office_name": "Houston Central",
    "longitude": "-95.297821000000",
    "zipcode": "77581",
    "latitude": "29.567029000000",
    "streetname": "Francis Dr",
    "streetnum": "2201",
    "city": "Pearland"
  },
  {
    "office_name": "Atlanta",
    "longitude": "-84.212974548340",
    "zipcode": "30071",
    "latitude": "33.952259063721",
    "streetname": "DOGWOOD",
    "streetnum": "731",
    "city": "Norcross"
  },
  {
    "office_name": "Dallas",
    "longitude": "-96.676788000000",
    "zipcode": "75228",
    "latitude": "32.819923000000",
    "streetname": "Lockhart",
    "streetnum": "2320",
    "city": "Dallas"
  },
  {
    "office_name": "Dallas",
    "longitude": "-96.710777000000",
    "zipcode": "75081",
    "latitude": "32.942607000000",
    "streetname": "Windsong",
    "streetnum": "1003",
    "city": "Richardson"
  },
  {
    "office_name": "Orange",
    "longitude": "-117.812139000000",
    "zipcode": "92705",
    "latitude": "33.760651000000",
    "streetname": "Esplanade",
    "streetnum": "13941",
    "city": "North Tustin"
  },
  {
    "office_name": "Houston Central",
    "longitude": "-95.453468000000",
    "zipcode": "77053",
    "latitude": "29.588167000000",
    "streetname": "Ridgecreek",
    "streetnum": "4889",
    "city": "Houston"
  },
  {
    "office_name": "Orange",
    "longitude": "-118.332878000000",
    "zipcode": "90068",
    "latitude": "34.108047000000",
    "streetname": "Whitley",
    "streetnum": "2031",
    "city": "Hollywood"
  },
  {
    "office_name": "Houston Central",
    "longitude": "-95.582478940487",
    "zipcode": "77077",
    "latitude": "29.755009263754",
    "streetname": "Brooklake Ct",
    "streetnum": "1403",
    "city": "Houston"
  },
  {
    "office_name": "Houston Central",
    "longitude": "-95.546684000000",
    "zipcode": "77043",
    "latitude": "29.817829000000",
    "streetname": "Riata Ln",
    "streetnum": "2534",
    "city": "Houston"
  },
  {
    "office_name": "Fort Worth",
    "longitude": "-97.196647000000",
    "zipcode": "76112",
    "latitude": "32.751968000000",
    "streetname": "Yolanda",
    "streetnum": "7428",
    "city": "Fort Worth"
  },
  {
    "office_name": "Dallas",
    "longitude": "-96.577187000000",
    "zipcode": "75149",
    "latitude": "32.748619000000",
    "streetname": "Virgie Joe",
    "streetnum": "1433",
    "city": "Mesquite"
  },
  {
    "office_name": "Orange",
    "longitude": "-117.708153000000",
    "zipcode": "92630",
    "latitude": "33.633251000000",
    "streetname": "Wood Lake",
    "streetnum": "22701",
    "city": "Lake Forest"
  },
  {
    "office_name": "Dallas",
    "longitude": "-96.835487000000",
    "zipcode": "75244",
    "latitude": "32.916629000000",
    "streetname": "Boca Bay",
    "streetnum": "4365",
    "city": "Dallas"
  },
  {
    "office_name": "Orange",
    "longitude": "-117.363739000000",
    "zipcode": "92501",
    "latitude": "34.002243000000",
    "streetname": "Main",
    "streetnum": "1580",
    "city": "Riverside"
  },
  {
    "office_name": "San Antonio Central",
    "longitude": "-98.556732000000",
    "zipcode": "78228",
    "latitude": "29.455867000000",
    "streetname": "OVERHILL DR",
    "streetnum": "114",
    "city": "San Antonio"
  },
  {
    "office_name": "Dallas",
    "longitude": "-96.769462000000",
    "zipcode": "75023",
    "latitude": "33.050701000000",
    "streetname": "Davis",
    "streetnum": "3916",
    "city": "Plano"
  },
  {
    "office_name": "Houston Central",
    "longitude": "-95.549980163574",
    "zipcode": "77070",
    "latitude": "29.983358383179",
    "streetname": "Roebourne Ln",
    "streetnum": "7515",
    "city": "Houston"
  },
  {
    "office_name": "Fort Worth",
    "longitude": "-97.393821716309",
    "zipcode": "76114",
    "latitude": "32.767494201660",
    "streetname": "Frontier",
    "streetnum": "508",
    "city": "River Oaks"
  },
  {
    "office_name": "Houston Central",
    "longitude": "-95.506744000000",
    "zipcode": "77066",
    "latitude": "29.966421000000",
    "streetname": "Lorinowoods",
    "streetnum": "5705",
    "city": "Houston"
  },
  {
    "office_name": "Fort Worth",
    "longitude": "-97.207496000000",
    "zipcode": "76060",
    "latitude": "32.650180000000",
    "streetname": "Harrison",
    "streetnum": "913",
    "city": "Fort Worth"
  },
  {
    "office_name": "Fort Worth",
    "longitude": "-97.342124000000",
    "zipcode": "76106",
    "latitude": "32.801704000000",
    "streetname": "N Harding",
    "streetnum": "3203",
    "city": "Fort Worth"
  },
  {
    "office_name": "San Antonio Central",
    "longitude": "-98.533302307129",
    "zipcode": "78201",
    "latitude": "29.444538116455",
    "streetname": "Laurel St",
    "streetnum": "2226",
    "city": "San Antonio"
  },
  {
    "office_name": "Dallas",
    "longitude": "-96.982475280762",
    "zipcode": "75062",
    "latitude": "32.843978881836",
    "streetname": "Rochelle",
    "streetnum": "2712",
    "city": "Irving"
  },
  {
    "office_name": "Dallas",
    "longitude": "-96.694000000000",
    "zipcode": "75228",
    "latitude": "32.805854000000",
    "streetname": "Grumman",
    "streetnum": "8523",
    "city": "Dallas"
  },
  {
    "office_name": "Fort Worth",
    "longitude": "-96.892204000000",
    "zipcode": "75007",
    "latitude": "33.014156000000",
    "streetname": "Cemetery Hill",
    "streetnum": "3811",
    "city": "Carrollton"
  },
  {
    "office_name": "Dallas",
    "longitude": "-96.736587000000",
    "zipcode": "75214",
    "latitude": "32.850299000000",
    "streetname": "Haverford",
    "streetnum": "7335",
    "city": "Dallas"
  },
  {
    "office_name": "Philadelphia",
    "longitude": "-75.160176632700",
    "zipcode": "19148",
    "latitude": "39.923575102000",
    "streetname": "MILDRED",
    "streetnum": "2034",
    "city": "PHILADELPHIA"
  },
  {
    "office_name": "Fort Worth",
    "longitude": "-97.407341000000",
    "zipcode": "76107",
    "latitude": "32.723312000000",
    "streetname": "Bonnell",
    "streetnum": "5625",
    "city": "Fort Worth"
  },
  {
    "office_name": "Fort Worth",
    "longitude": "-97.199358000000",
    "zipcode": "76053",
    "latitude": "32.810796000000",
    "streetname": "Crestview",
    "streetnum": "1212",
    "city": "Hurst"
  },
  {
    "office_name": "Fort Worth",
    "longitude": "-97.310371000000",
    "zipcode": "76111",
    "latitude": "32.782207000000",
    "streetname": "Primrose",
    "streetnum": "2509",
    "city": "Fort Worth"
  },
  {
    "office_name": "San Antonio Central",
    "longitude": "-98.513686000000",
    "zipcode": "78201",
    "latitude": "29.450899000000",
    "streetname": "French",
    "streetnum": "1319",
    "city": "San Antonio"
  },
  {
    "office_name": "Houston Central",
    "longitude": "-95.590507000000",
    "zipcode": "77079",
    "latitude": "29.780971000000",
    "streetname": "Myrtlea",
    "streetnum": "14002",
    "city": "Houston"
  },
  {
    "office_name": "Philadelphia",
    "longitude": "-75.170674204100",
    "zipcode": "19146",
    "latitude": "39.932625122400",
    "streetname": "MOLE",
    "streetnum": "1446",
    "city": "PHILADELPHIA"
  },
  {
    "office_name": "Dallas",
    "longitude": "-96.738006000000",
    "zipcode": "75214",
    "latitude": "32.850238000000",
    "streetname": "Bennington",
    "streetnum": "7309",
    "city": "Dallas"
  },
  {
    "office_name": "Dallas",
    "longitude": "-97.513099670410",
    "zipcode": "76020",
    "latitude": "32.929206848145",
    "streetname": "Hill",
    "streetnum": "6835",
    "city": "Azle"
  },
  {
    "office_name": "Houston Central",
    "longitude": "-95.479515000000",
    "zipcode": "77092",
    "latitude": "29.844621000000",
    "streetname": "Birchmont Dr",
    "streetnum": "6022",
    "city": "Houston"
  },
  {
    "office_name": "Atlanta",
    "longitude": "-84.534019000000",
    "zipcode": "30060",
    "latitude": "33.948497000000",
    "streetname": "Merritt",
    "streetnum": "139",
    "city": "Marietta"
  },
  {
    "office_name": "Fort Worth",
    "longitude": "-97.162002000000",
    "zipcode": "76013",
    "latitude": "32.716773000000",
    "streetname": "Country Club",
    "streetnum": "3313",
    "city": "Pantego"
  },
  {
    "office_name": "Orange",
    "longitude": "-118.172615000000",
    "zipcode": "90807",
    "latitude": "33.828868000000",
    "streetname": "Roosevelt",
    "streetnum": "1530",
    "city": "Long Beach"
  },
  {
    "office_name": "Austin",
    "longitude": "0.000000000000",
    "zipcode": "78749",
    "latitude": "0.000000000000",
    "streetname": "Beckett",
    "streetnum": "7105",
    "city": "Austin"
  },
  {
    "office_name": "Philadelphia",
    "longitude": "-75.171531677246",
    "zipcode": "19146",
    "latitude": "39.933166503906",
    "streetname": "BANCROFT",
    "streetnum": "1407",
    "city": "PHILADELPHIA"
  },
  {
    "office_name": "San Antonio Central",
    "longitude": "-98.520423173904",
    "zipcode": "78201",
    "latitude": "29.454481825233",
    "streetname": "MISTLETOE AVE",
    "streetnum": "1551",
    "city": "San Antonio"
  },
  {
    "office_name": "Fort Worth",
    "longitude": "-97.260147000000",
    "zipcode": "76148",
    "latitude": "32.869743000000",
    "streetname": "Yorkston",
    "streetnum": "6945",
    "city": "Watauga"
  },
  {
    "office_name": "San Antonio Central",
    "longitude": "-98.485824000000",
    "zipcode": "78212",
    "latitude": "29.449546000000",
    "streetname": "Terry",
    "streetnum": "157",
    "city": "San Antonio"
  },
  {
    "office_name": "Dallas",
    "longitude": "-96.634933000000",
    "zipcode": "75040",
    "latitude": "32.929332000000",
    "streetname": "Lucinda",
    "streetnum": "410",
    "city": "Garland"
  },
  {
    "office_name": "Fort Worth",
    "longitude": "-96.883895000000",
    "zipcode": "75007",
    "latitude": "33.022331000000",
    "streetname": "Vista Oaks",
    "streetnum": "1921",
    "city": "Carrollton"
  },
  {
    "office_name": "Dallas",
    "longitude": "-96.945762634277",
    "zipcode": "75062",
    "latitude": "32.851432800293",
    "streetname": "Bryn Mawr",
    "streetnum": "3708",
    "city": "Irving"
  },
  {
    "office_name": "Houston Central",
    "longitude": "-95.743019000000",
    "zipcode": "77450",
    "latitude": "29.771055000000",
    "streetname": "Park Downe",
    "streetnum": "21318",
    "city": "Houston"
  },
  {
    "office_name": "Fort Worth",
    "longitude": "-97.345840000000",
    "zipcode": "76110",
    "latitude": "32.720829000000",
    "streetname": "Stanley",
    "streetnum": "2131",
    "city": "Fort Worth"
  },
  {
    "office_name": "Orange",
    "longitude": "-117.995964000000",
    "zipcode": "91016",
    "latitude": "34.162265000000",
    "streetname": "Canyon",
    "streetnum": "469",
    "city": "Monrovia"
  },
  {
    "office_name": "Dallas",
    "longitude": "-96.785652160645",
    "zipcode": "75248",
    "latitude": "32.972255706787",
    "streetname": "Flintcove",
    "streetnum": "6925",
    "city": "Dallas"
  },
  {
    "office_name": "San Antonio Central",
    "longitude": "-98.548248000000",
    "zipcode": "78228",
    "latitude": "29.468427000000",
    "streetname": "SHADWELL DR",
    "streetnum": "440",
    "city": "San Antonio"
  },
  {
    "office_name": "Atlanta",
    "longitude": "-84.320838928223",
    "zipcode": "30317",
    "latitude": "33.746376037598",
    "streetname": "memorial",
    "streetnum": "2029",
    "city": "Atlanta"
  },
  {
    "office_name": "Dallas",
    "longitude": "-96.736419000000",
    "zipcode": "75243",
    "latitude": "32.901679000000",
    "streetname": "Windcrest",
    "streetnum": "9111",
    "city": "Dallas"
  },
  {
    "office_name": "Fort Worth",
    "longitude": "-97.282859000000",
    "zipcode": "76111",
    "latitude": "32.767425000000",
    "streetname": "Goddard",
    "streetnum": "4405",
    "city": "Fort Worth"
  },
  {
    "office_name": "Houston Central",
    "longitude": "-95.731636047363",
    "zipcode": "77406",
    "latitude": "29.612493515015",
    "streetname": "Winston Homestead",
    "streetnum": "1615",
    "city": "Richmond"
  },
  {
    "office_name": "Fort Worth",
    "longitude": "-96.812362670898",
    "zipcode": "75241",
    "latitude": "32.682888031006",
    "streetname": "Glen Arbor",
    "streetnum": "822",
    "city": "Dallas"
  },
  {
    "office_name": "Fort Worth",
    "longitude": "-97.132209777832",
    "zipcode": "76040",
    "latitude": "32.819232940674",
    "streetname": "Paula",
    "streetnum": "1213",
    "city": "Euless"
  },
  {
    "office_name": "Houston Central",
    "longitude": "-95.561866000000",
    "zipcode": "77040",
    "latitude": "29.887701000000",
    "streetname": "Jersey Dr",
    "streetnum": "15905",
    "city": "Houston"
  },
  {
    "office_name": "Houston Central",
    "longitude": "-95.356819152832",
    "zipcode": "77373",
    "latitude": "30.046220779419",
    "streetname": "Glendower Dr",
    "streetnum": "4819",
    "city": "Spring"
  },
  {
    "office_name": "Dallas",
    "longitude": "-96.533721923828",
    "zipcode": "75088",
    "latitude": "32.886043548584",
    "streetname": "Baylor",
    "streetnum": "2601",
    "city": "Rowlett"
  },
  {
    "office_name": "Houston Central",
    "longitude": "-95.430183000000",
    "zipcode": "77025",
    "latitude": "29.697599000000",
    "streetname": "Merrick",
    "streetnum": "3514",
    "city": "Houston"
  },
  {
    "office_name": "Fort Worth",
    "longitude": "-97.208084106445",
    "zipcode": "76112",
    "latitude": "32.736213684082",
    "streetname": "Craig",
    "streetnum": "7012",
    "city": "Fort Worth"
  },
  {
    "office_name": "Fort Worth",
    "longitude": "-97.375915000000",
    "zipcode": "76107",
    "latitude": "32.740692000000",
    "streetname": "Dexter",
    "streetnum": "3920",
    "city": "fort worth"
  },
  {
    "office_name": "Fort Worth",
    "longitude": "-97.230581000000",
    "zipcode": "Tarra",
    "latitude": "32.835636000000",
    "streetname": "Vance",
    "streetnum": "4513",
    "city": "North Richland Hills"
  },
  {
    "office_name": "Dallas",
    "longitude": "-96.744796000000",
    "zipcode": "75231",
    "latitude": "32.860328000000",
    "streetname": "Kingsbury",
    "streetnum": "6827",
    "city": "Dallas"
  },
  {
    "office_name": "Philadelphia",
    "longitude": "-75.299209000000",
    "zipcode": "19026",
    "latitude": "39.952945000000",
    "streetname": "TURNER",
    "streetnum": "719",
    "city": "DREXEL HILL"
  },
  {
    "office_name": "Orange",
    "longitude": "-117.934745000000",
    "zipcode": "92627",
    "latitude": "33.657718000000",
    "streetname": "Joann",
    "streetnum": "858",
    "city": "Costa Mesa"
  },
  {
    "office_name": "San Antonio Central",
    "longitude": "0.000000000000",
    "zipcode": "78238",
    "latitude": "0.000000000000",
    "streetname": "DEER HORN DR",
    "streetnum": "6010",
    "city": "San Antonio"
  },
  {
    "office_name": "Fort Worth",
    "longitude": "-97.366851000000",
    "zipcode": "76133",
    "latitude": "32.661060000000",
    "streetname": "Denbury",
    "streetnum": "3436",
    "city": "Fort Worth"
  },
  {
    "office_name": "San Antonio Central",
    "longitude": "-98.518112000000",
    "zipcode": "78213",
    "latitude": "29.524393000000",
    "streetname": "Roleto",
    "streetnum": "106",
    "city": "San Antonio"
  },
  {
    "office_name": "Dallas",
    "longitude": "-96.801071166992",
    "zipcode": "75230",
    "latitude": "32.920883178711",
    "streetname": "Sunlight",
    "streetnum": "12649",
    "city": "Dallas"
  },
  {
    "office_name": "Fort Worth",
    "longitude": "-97.391716003418",
    "zipcode": "76133",
    "latitude": "32.664127349854",
    "streetname": "Walraven",
    "streetnum": "5801",
    "city": "Fort Worth"
  },
  {
    "office_name": "Houston Central",
    "longitude": "-95.591590000000",
    "zipcode": "77077",
    "latitude": "29.740961000000",
    "streetname": "Silver Sage Dr",
    "streetnum": "2235",
    "city": "Houston"
  },
  {
    "office_name": "Dallas",
    "longitude": "-96.824989000000",
    "zipcode": "75208",
    "latitude": "32.750850000000",
    "streetname": "Elsbeth",
    "streetnum": "700",
    "city": "Dallas"
  },
  {
    "office_name": "Fort Worth",
    "longitude": "-97.467664000000",
    "zipcode": "76135",
    "latitude": "32.819001000000",
    "streetname": "Ella Young",
    "streetnum": "8017",
    "city": "Fort Worth"
  },
  {
    "office_name": "Fort Worth",
    "longitude": "-97.382125000000",
    "zipcode": "76107",
    "latitude": "32.742927000000",
    "streetname": "Tremont",
    "streetnum": "1709",
    "city": "Fort Worth"
  },
  {
    "office_name": "Dallas",
    "longitude": "-96.771743000000",
    "zipcode": "75254",
    "latitude": "32.947727000000",
    "streetname": "Overview",
    "streetnum": "14554",
    "city": "Dallas"
  },
  {
    "office_name": "Atlanta",
    "longitude": "-84.275001525879",
    "zipcode": "30030",
    "latitude": "33.771816253662",
    "streetname": "Livingstone",
    "streetnum": "792",
    "city": "Decatur"
  },
  {
    "office_name": "San Antonio Central",
    "longitude": "-98.603945000000",
    "zipcode": "78238",
    "latitude": "29.477521000000",
    "streetname": "LIGHTNING",
    "streetnum": "4615",
    "city": "San Antonio"
  },
  {
    "office_name": "San Antonio Central",
    "longitude": "-98.344131000000",
    "zipcode": "78239",
    "latitude": "29.512670000000",
    "streetname": "Glen",
    "streetnum": "7203",
    "city": "San Antonio"
  },
  {
    "office_name": "Houston Central",
    "longitude": "-95.520294189453",
    "zipcode": "77389",
    "latitude": "30.113136291504",
    "streetname": "Larkmount Dr",
    "streetnum": "6506",
    "city": "Spring"
  },
  {
    "office_name": "Dallas",
    "longitude": "-96.766471000000",
    "zipcode": "75075",
    "latitude": "33.040287000000",
    "streetname": "Saddlehead",
    "streetnum": "3812",
    "city": "Plano"
  },
  {
    "office_name": "Houston Central",
    "longitude": "-95.617538452148",
    "zipcode": "77429",
    "latitude": "29.998119354248",
    "streetname": "Marron Dr",
    "streetnum": "12918",
    "city": "Cypress"
  },
  {
    "office_name": "Dallas",
    "longitude": "-96.703712000000",
    "zipcode": "75238",
    "latitude": "32.879726000000",
    "streetname": "Lanward",
    "streetnum": "9727",
    "city": "Dallas"
  },
  {
    "office_name": "Atlanta",
    "longitude": "-84.289894104004",
    "zipcode": "30341",
    "latitude": "33.914546966553",
    "streetname": "Parson",
    "streetnum": "4133",
    "city": "Chamblee"
  },
  {
    "office_name": "Philadelphia",
    "longitude": "-75.149411818200",
    "zipcode": "19126",
    "latitude": "40.056666272700",
    "streetname": "OGONTZ",
    "streetnum": "6708",
    "city": "PHILADELPHIA"
  },
  {
    "office_name": "Philadelphia",
    "longitude": "-75.282526320600",
    "zipcode": "19032",
    "latitude": "39.885757247700",
    "streetname": "KENT",
    "streetnum": "2010",
    "city": "FOLCROFT"
  },
  {
    "office_name": "Houston Central",
    "longitude": "-95.173885000000",
    "zipcode": "77546",
    "latitude": "29.540814000000",
    "streetname": "Sheet Bend Way",
    "streetnum": "16706",
    "city": "Friendswood"
  },
  {
    "office_name": "Philadelphia",
    "longitude": "-75.284735058800",
    "zipcode": "19032",
    "latitude": "39.884051988200",
    "streetname": "TAYLOR",
    "streetnum": "1035",
    "city": "FOLCROFT"
  },
  {
    "office_name": "Philadelphia",
    "longitude": "-75.305394000000",
    "zipcode": "19026",
    "latitude": "39.956955000000",
    "streetname": "EDMONDS",
    "streetnum": "901",
    "city": "DREXEL HILL"
  },
  {
    "office_name": "Fort Worth",
    "longitude": "-97.383857000000",
    "zipcode": "76133",
    "latitude": "32.662418000000",
    "streetname": "Wessex",
    "streetnum": "5612",
    "city": "Fort Worth"
  },
  {
    "office_name": "Fort Worth",
    "longitude": "-97.375877000000",
    "zipcode": "76107",
    "latitude": "32.768894000000",
    "streetname": "Wildwood",
    "streetnum": "3709",
    "city": "Fort Worth"
  },
  {
    "office_name": "Fort Worth",
    "longitude": "-97.376205000000",
    "zipcode": "76107",
    "latitude": "32.772994000000",
    "streetname": "Bailey",
    "streetnum": "837",
    "city": "Fort Worth"
  },
  {
    "office_name": "Atlanta",
    "longitude": "-84.320770000000",
    "zipcode": "30316",
    "latitude": "33.701599000000",
    "streetname": "w caribea trail",
    "streetnum": "1689",
    "city": "atlanta"
  },
  {
    "office_name": "Atlanta",
    "longitude": "-84.304111300000",
    "zipcode": "30316",
    "latitude": "33.697907900000",
    "streetname": "Gresham",
    "streetnum": "2899",
    "city": "Atlanta"
  },
  {
    "office_name": "Atlanta",
    "longitude": "-84.249214172363",
    "zipcode": "30032",
    "latitude": "33.739898681641",
    "streetname": "glensford",
    "streetnum": "3449",
    "city": "decatur"
  },
  {
    "office_name": "Fort Worth",
    "longitude": "-97.323287963867",
    "zipcode": "76110",
    "latitude": "32.692287445068",
    "streetname": "Jones",
    "streetnum": "3836",
    "city": "Fort Worth"
  },
  {
    "office_name": "San Antonio Central",
    "longitude": "0.000000000000",
    "zipcode": "78212",
    "latitude": "0.000000000000",
    "streetname": "FRENCH PL",
    "streetnum": "917",
    "city": "San Antonio"
  },
  {
    "office_name": "Philadelphia",
    "longitude": "-75.347679000000",
    "zipcode": "19064",
    "latitude": "39.935798000000",
    "streetname": "WYNNE",
    "streetnum": "607",
    "city": "SPRINGFIELD"
  },
  {
    "office_name": "Dallas",
    "longitude": "-96.772956000000",
    "zipcode": "75246",
    "latitude": "32.794940000000",
    "streetname": "Junius",
    "streetnum": "4318",
    "city": "Dallas"
  },
  {
    "office_name": "Austin",
    "longitude": "-97.698486328125",
    "zipcode": "78758",
    "latitude": "30.385656356812",
    "streetname": "Bending Bough",
    "streetnum": "11200",
    "city": "Austin"
  },
  {
    "office_name": "Orange",
    "longitude": "-118.159019470210",
    "zipcode": "90201",
    "latitude": "33.977283477783",
    "streetname": "Lanto",
    "streetnum": "5901",
    "city": "Bell Gardens"
  },
  {
    "office_name": "Houston Central",
    "longitude": "-95.633064000000",
    "zipcode": "77084",
    "latitude": "29.846139000000",
    "streetname": "ECHO CANYON DR",
    "streetnum": "15715",
    "city": "HOUSTON"
  },
  {
    "office_name": "Dallas",
    "longitude": "-96.787399000000",
    "zipcode": "75230",
    "latitude": "32.900821000000",
    "streetname": "Midbury",
    "streetnum": "6926",
    "city": "Dallas"
  },
  {
    "office_name": "Fort Worth",
    "longitude": "-97.323290000000",
    "zipcode": "76110",
    "latitude": "32.692423000000",
    "streetname": "Jones",
    "streetnum": "3832",
    "city": "Fort Worth"
  },
  {
    "office_name": "Austin",
    "longitude": "0.000000000000",
    "zipcode": "78613",
    "latitude": "0.000000000000",
    "streetname": "Russet Valley",
    "streetnum": "706",
    "city": "Cedar Park"
  },
  {
    "office_name": "Dallas",
    "longitude": "-96.774391000000",
    "zipcode": "75248",
    "latitude": "32.953792000000",
    "streetname": "Chattington",
    "streetnum": "7722",
    "city": "Dallas"
  },
  {
    "office_name": "Fort Worth",
    "longitude": "-97.389114000000",
    "zipcode": "76133",
    "latitude": "32.657928000000",
    "streetname": "Wonder",
    "streetnum": "6088",
    "city": "Fort Worth"
  },
  {
    "office_name": "Houston Central",
    "longitude": "-95.365257000000",
    "zipcode": "77004",
    "latitude": "29.726936000000",
    "streetname": "Isabella St",
    "streetnum": "2810",
    "city": "Houston"
  },
  {
    "office_name": "Houston Central",
    "longitude": "-95.431213000000",
    "zipcode": "77008",
    "latitude": "29.798997000000",
    "streetname": "Tannehill",
    "streetnum": "1718",
    "city": "Houston"
  },
  {
    "office_name": "Fort Worth",
    "longitude": "-97.238204000000",
    "zipcode": "76118",
    "latitude": "32.811813000000",
    "streetname": "Reeves",
    "streetnum": "6700",
    "city": "Richland Hills"
  },
  {
    "office_name": "Houston Central",
    "longitude": "-95.625000000000",
    "zipcode": "77429",
    "latitude": "29.953292846680",
    "streetname": "Shaft Dr",
    "streetnum": "13335",
    "city": "Cypress"
  },
  {
    "office_name": "Atlanta",
    "longitude": "-84.609313000000",
    "zipcode": "30144",
    "latitude": "34.033344000000",
    "streetname": "Tara",
    "streetnum": "3278",
    "city": "Kennesaw"
  },
  {
    "office_name": "San Antonio Central",
    "longitude": "-98.379783000000",
    "zipcode": "78247",
    "latitude": "29.598287000000",
    "streetname": "Vista Oaks",
    "streetnum": "17115",
    "city": "San Antonio"
  },
  {
    "office_name": "Houston Central",
    "longitude": "-95.607200622559",
    "zipcode": "77429",
    "latitude": "29.997131347656",
    "streetname": "Bowing Oaks Dr",
    "streetnum": "12810",
    "city": "Cypress"
  },
  {
    "office_name": "Atlanta",
    "longitude": "-84.276588439941",
    "zipcode": "30032",
    "latitude": "33.733627319336",
    "streetname": "Willa Way",
    "streetnum": "1956",
    "city": "Decatur"
  },
  {
    "office_name": "Orange",
    "longitude": "-117.937644000000",
    "zipcode": "92663",
    "latitude": "33.620674000000",
    "streetname": "44th",
    "streetnum": "204",
    "city": "Newport Beach"
  },
  {
    "office_name": "Fort Worth",
    "longitude": "-97.185440000000",
    "zipcode": "76054",
    "latitude": "32.842437000000",
    "streetname": "Pleasantview",
    "streetnum": "737",
    "city": "Hurst"
  },